{
  "PositionStack": {
    "output": [
      {
        "address": "Unit 209, Pine Close, Newhaven BN9 0DH",
        "lat": 50.800109,
        "lon": 0.055496,
        "result": {
          "address": "Unit 209, Pine Close, Newhaven BN9 0DH",
          "geocode_address": "New Haven, CT, USA",
          "lat": 41.308658,
          "lon": -72.925297,
          "dist_from_actual": 5495.2
        }
      },
      {
        "address": "Unit 209, Pine Close, Newhaven BN9 0DH, GBR",
        "lat": 50.800109,
        "lon": 0.055496,
        "result": {
          "address": "Unit 209, Pine Close, Newhaven BN9 0DH, GBR",
          "geocode_address": "Newhaven, England, United Kingdom",
          "lat": 50.79143,
          "lon": 0.052121,
          "dist_from_actual": 1.0
        }
      },
      {
        "address": "Pine Close, Newhaven BN9 0DH",
        "lat": 50.800109,
        "lon": 0.055496,
        "result": {
          "address": "Pine Close, Newhaven BN9 0DH",
          "geocode_address": "New Haven, CT, USA",
          "lat": 41.308658,
          "lon": -72.925297,
          "dist_from_actual": 5495.2
        }
      },
      {
        "address": "Pine Close, Newhaven BN9 0DH, GBR",
        "lat": 50.800109,
        "lon": 0.055496,
        "result": {
          "address": "Pine Close, Newhaven BN9 0DH, GBR",
          "geocode_address": "Newhaven, England, United Kingdom",
          "lat": 50.79143,
          "lon": 0.052121,
          "dist_from_actual": 1.0
        }
      },
      {
        "address": "51 George Lane, London, England, E18 1LN, GBR",
        "lat": 51.591142,
        "lon": 0.02896,
        "result": {
          "address": "51 George Lane, London, England, E18 1LN, GBR",
          "geocode_address": "51 George Lane, London, England, United Kingdom",
          "lat": 51.591189,
          "lon": 0.028912,
          "dist_from_actual": 0.0
        }
      },
      {
        "address": "51 George Lane, London, England, E18 1, GBR",
        "lat": 51.591142,
        "lon": 0.02896,
        "result": {
          "address": "51 George Lane, London, England, E18 1, GBR",
          "geocode_address": "51 George Lane, London, England, United Kingdom",
          "lat": 51.591189,
          "lon": 0.028912,
          "dist_from_actual": 0.0
        }
      },
      {
        "address": "14 A. van Leeuwenhoekweg, 2408 AM, Alphen a d Rijn, Nederland",
        "lat": 52.128643,
        "lon": 4.645307,
        "result": {
          "address": "14 A. van Leeuwenhoekweg, 2408 AM, Alphen a d Rijn, Nederland",
          "geocode_address": "A. Van Leeuwenhoekweg 14, Alphen aan den Rijn, ZH, Netherlands",
          "lat": 52.12875,
          "lon": 4.645339,
          "dist_from_actual": 0.0
        }
      },
      {
        "address": "A, Van Leeuwenhoekweg 14, 2408 AM Alphen aan den Rijn, Netherlands",
        "lat": 52.128643,
        "lon": 4.645307,
        "result": {
          "address": "A, Van Leeuwenhoekweg 14, 2408 AM Alphen aan den Rijn, Netherlands",
          "geocode_address": "Van Leeuwenhoekweg 14, Benthuizen, ZH, Netherlands",
          "lat": 52.078588,
          "lon": 4.539372,
          "dist_from_actual": 9.1
        }
      },
      {
        "address": "Reiver Garage Services, Duns TD11",
        "lat": 55.782252,
        "lon": -2.338105,
        "result": {
          "address": "Reiver Garage Services, Duns TD11",
          "geocode_address": "Bridge Garage Services, Hemel Hempstead, England, United Kingdom",
          "lat": 51.738892,
          "lon": -0.474501,
          "dist_from_actual": 465.9
        }
      },
      {
        "address": "Reiver Garage Services, Duns TD11, GBR",
        "lat": 55.782252,
        "lon": -2.338105,
        "result": {
          "address": "Reiver Garage Services, Duns TD11, GBR",
          "geocode_address": "Bridge Garage Services, Hemel Hempstead, England, United Kingdom",
          "lat": 51.738892,
          "lon": -0.474501,
          "dist_from_actual": 465.9
        }
      },
      {
        "address": "Agricar Ltd, Stirling",
        "lat": 56.140603,
        "lon": -3.984313,
        "result": {
          "address": "Agricar Ltd, Stirling",
          "geocode_address": "Gasolinera Agricar, Carcaixent, VC, Spain",
          "lat": 39.115528,
          "lon": -0.455028,
          "dist_from_actual": 1910.9
        }
      },
      {
        "address": "Agricar Ltd, Stirling, United Kingdom",
        "lat": 56.140603,
        "lon": -3.984313,
        "result": {
          "address": "Agricar Ltd, Stirling, United Kingdom",
          "geocode_address": "Gasolinera Agricar, Carcaixent, VC, Spain",
          "lat": 39.115528,
          "lon": -0.455028,
          "dist_from_actual": 1910.9
        }
      },
      {
        "address": "KAAPSTADWEG 36 D 1047 AMSTERDAM",
        "lat": 52.404891,
        "lon": 4.739006,
        "result": {
          "address": "KAAPSTADWEG 36 D 1047 AMSTERDAM",
          "geocode_address": "Kaapstadweg 36D, Amsterdam, NH, Netherlands",
          "lat": 52.404849,
          "lon": 4.737937,
          "dist_from_actual": 0.1
        }
      },
      {
        "address": "KAAPSTADWEG 36 D 1047 AMSTERDAM, Nederland",
        "lat": 52.404891,
        "lon": 4.739006,
        "result": {
          "address": "KAAPSTADWEG 36 D 1047 AMSTERDAM, Nederland",
          "geocode_address": "Kaapstadweg 36D, Amsterdam, NH, Netherlands",
          "lat": 52.404849,
          "lon": 4.737937,
          "dist_from_actual": 0.1
        }
      },
      {
        "address": "Witte Paal 329",
        "lat": 52.778129,
        "lon": 4.815768,
        "result": {
          "address": "Witte Paal 329",
          "geocode_address": "Witte Paal 329, Schagen, NH, Netherlands",
          "lat": 52.778289,
          "lon": 4.815626,
          "dist_from_actual": 0.0
        }
      },
      {
        "address": "Witte Paal 329, Nederland",
        "lat": 52.778129,
        "lon": 4.815768,
        "result": {
          "address": "Witte Paal 329, Nederland",
          "geocode_address": "Netherlands",
          "lat": 52.554205,
          "lon": 5.501896,
          "dist_from_actual": 52.5
        }
      },
      {
        "address": "Slotsweg 7",
        "lat": 52.202146,
        "lon": 6.632251,
        "result": {
          "address": "Slotsweg 7",
          "geocode_address": "Slotsweg 7, Hengevelde, OV, Netherlands",
          "lat": 52.201963,
          "lon": 6.63225,
          "dist_from_actual": 0.0
        }
      },
      {
        "address": "Slotsweg 7, Nederland",
        "lat": 52.202146,
        "lon": 6.632251,
        "result": {
          "address": "Slotsweg 7, Nederland",
          "geocode_address": "Slotsweg 7, Hengevelde, OV, Netherlands",
          "lat": 52.201963,
          "lon": 6.63225,
          "dist_from_actual": 0.0
        }
      },
      {
        "address": "Aalsvoort 1",
        "lat": 52.168644,
        "lon": 6.392294,
        "result": {
          "address": "Aalsvoort 1",
          "geocode_address": "Aalsvoort 1, Lochem, GE, Netherlands",
          "lat": 52.168624,
          "lon": 6.392173,
          "dist_from_actual": 0.0
        }
      },
      {
        "address": "Aalsvoort 1, Nederland",
        "lat": 52.168644,
        "lon": 6.392294,
        "result": {
          "address": "Aalsvoort 1, Nederland",
          "geocode_address": "Aalsvoort 1, Lochem, GE, Netherlands",
          "lat": 52.168624,
          "lon": 6.392173,
          "dist_from_actual": 0.0
        }
      },
      {
        "address": "6 DOLFIJN 1601 ENKHUIZEN",
        "lat": 52.695506,
        "lon": 5.271827,
        "result": {
          "address": "6 DOLFIJN 1601 ENKHUIZEN",
          "geocode_address": "De Dolfijn 6, Enkhuizen, NH, Netherlands",
          "lat": 52.695543,
          "lon": 5.271392,
          "dist_from_actual": 0.0
        }
      },
      {
        "address": "6 DOLFIJN 1601 ENKHUIZEN, Nederland",
        "lat": 52.695506,
        "lon": 5.271827,
        "result": {
          "address": "6 DOLFIJN 1601 ENKHUIZEN, Nederland",
          "geocode_address": "De Dolfijn 6, Enkhuizen, NH, Netherlands",
          "lat": 52.695543,
          "lon": 5.271392,
          "dist_from_actual": 0.0
        }
      },
      {
        "address": "De Huchtstraat 5 1327 Almere",
        "lat": 52.3595,
        "lon": 5.258741,
        "result": {
          "address": "De Huchtstraat 5 1327 Almere",
          "geocode_address": "De Huchtstraat 5, Almere, FL, Netherlands",
          "lat": 52.359641,
          "lon": 5.258338,
          "dist_from_actual": 0.0
        }
      },
      {
        "address": "De Huchtstraat 5 1327 Almere, Nederland",
        "lat": 52.3595,
        "lon": 5.258741,
        "result": {
          "address": "De Huchtstraat 5 1327 Almere, Nederland",
          "geocode_address": "De Huchtstraat 5, Almere, FL, Netherlands",
          "lat": 52.359641,
          "lon": 5.258338,
          "dist_from_actual": 0.0
        }
      },
      {
        "address": "DONAUWEG 11 1011 AMSTERDAM",
        "lat": 52.394527,
        "lon": 4.838175,
        "result": {
          "address": "DONAUWEG 11 1011 AMSTERDAM",
          "geocode_address": "Donauweg 11A, Amsterdam, NH, Netherlands",
          "lat": 52.394466,
          "lon": 4.838256,
          "dist_from_actual": 0.0
        }
      },
      {
        "address": "DONAUWEG 11 1011 AMSTERDAM, Nederland",
        "lat": 52.394527,
        "lon": 4.838175,
        "result": {
          "address": "DONAUWEG 11 1011 AMSTERDAM, Nederland",
          "geocode_address": "Donauweg 11A, Amsterdam, NH, Netherlands",
          "lat": 52.394466,
          "lon": 4.838256,
          "dist_from_actual": 0.0
        }
      },
      {
        "address": "STUARTWEG 10 4131 VIANEN",
        "lat": 51.984047,
        "lon": 5.099642,
        "result": {
          "address": "STUARTWEG 10 4131 VIANEN",
          "geocode_address": "Stuartweg 10, Vianen, UT, Netherlands",
          "lat": 51.984228,
          "lon": 5.09953,
          "dist_from_actual": 0.0
        }
      },
      {
        "address": "STUARTWEG 10 4131 VIANEN, Nederland",
        "lat": 51.984047,
        "lon": 5.099642,
        "result": {
          "address": "STUARTWEG 10 4131 VIANEN, Nederland",
          "geocode_address": "Stuartweg 10, Vianen, UT, Netherlands",
          "lat": 51.984228,
          "lon": 5.09953,
          "dist_from_actual": 0.0
        }
      },
      {
        "address": "Oude Middenweg 237, Leidshendam, NLD",
        "lat": 52.075059,
        "lon": 4.403634,
        "result": {
          "address": "Oude Middenweg 237, Leidshendam, NLD",
          "geocode_address": "Oude Middenweg 237, The Hague, ZH, Netherlands",
          "lat": 52.075142,
          "lon": 4.403469,
          "dist_from_actual": 0.0
        }
      },
      {
        "address": "Plantage 12, Oude Wetering, NLD",
        "lat": 52.207195,
        "lon": 4.647462,
        "result": {
          "address": "Plantage 12, Oude Wetering, NLD",
          "geocode_address": "Plantage 12, Oude Wetering, ZH, Netherlands",
          "lat": 52.207214,
          "lon": 4.647315,
          "dist_from_actual": 0.0
        }
      },
      {
        "address": "HOBARTS GARAGE ##, KILCOY, QLD, Australia",
        "lat": -26.943609,
        "lon": 152.565254,
        "result": {
          "address": "HOBARTS GARAGE ##, KILCOY, QLD, Australia",
          "geocode_address": "Hobarts, London, England, United Kingdom",
          "lat": 51.57411,
          "lon": -0.112958,
          "dist_from_actual": 16446.8
        }
      },
      {
        "address": "2/97 ARCHER STREET, WOODFORD, QLD, Australia",
        "lat": -26.95362,
        "lon": 152.777805,
        "result": {
          "address": "2/97 ARCHER STREET, WOODFORD, QLD, Australia",
          "geocode_address": "Woodford, QLD, Australia",
          "lat": -26.96206,
          "lon": 152.763518,
          "dist_from_actual": 1.7
        }
      },
      {
        "address": "0685 - BP ARCHERFIELD COMMERCIAL, ARCHERFIELD, QLD, Australia",
        "lat": -27.565294,
        "lon": 152.998437,
        "result": {
          "address": "0685 - BP ARCHERFIELD COMMERCIAL, ARCHERFIELD, QLD, Australia",
          "geocode_address": "Queensland, Australia",
          "lat": -20,
          "lon": 145,
          "dist_from_actual": 1169.8
        }
      },
      {
        "address": "S480323 MAZDA H/O - SOUTHPORT MAZDA, ARUNDEL, QLD, Australia",
        "lat": 27.967878,
        "lon": 153.409699,
        "result": null
      },
      {
        "address": "SY1 3TJ, GBR",
        "lat": 52.745344,
        "lon": -2.739563,
        "result": {
          "address": "SY1 3TJ, GBR",
          "geocode_address": "SY1 3TJ, Shrewsbury, England, United Kingdom",
          "lat": 52.745051,
          "lon": -2.740168,
          "dist_from_actual": 0.1
        }
      },
      {
        "address": "B11 2PP, GBR",
        "lat": 52.461279,
        "lon": -1.855262,
        "result": {
          "address": "B11 2PP, GBR",
          "geocode_address": "B11 2PP, Birmingham, England, United Kingdom",
          "lat": 52.46158,
          "lon": -1.855455,
          "dist_from_actual": 0.0
        }
      },
      {
        "address": "MK11 3EW DELIVER 12/4, GBR",
        "lat": 52.045579,
        "lon": -0.823664,
        "result": null
      },
      {
        "address": "West Midlands DY9 7ND, GBR",
        "lat": 52.453528,
        "lon": -2.130114,
        "result": {
          "address": "West Midlands DY9 7ND, GBR",
          "geocode_address": "Akrotiri",
          "lat": 34.60353,
          "lon": 32.968053,
          "dist_from_actual": 3403.7
        }
      },
      {
        "address": "Unit 17D, Gainsborough Trading Estate, Rufford Rd, Stourbridge DY9 7ND, United Kingdom",
        "lat": 52.453528,
        "lon": -2.130114,
        "result": {
          "address": "Unit 17D, Gainsborough Trading Estate, Rufford Rd, Stourbridge DY9 7ND, United Kingdom",
          "geocode_address": "Stourbridge, England, United Kingdom",
          "lat": 52.45608,
          "lon": -2.14317,
          "dist_from_actual": 0.9
        }
      },
      {
        "address": "MAIN ST & KATH FITZGERALD DVE, SAMFORD, QLD, Australia",
        "lat": -27.372564,
        "lon": 152.886251,
        "result": {
          "address": "MAIN ST & KATH FITZGERALD DVE, SAMFORD, QLD, Australia",
          "geocode_address": "Samford Village, QLD, Australia",
          "lat": -27.372627,
          "lon": 152.884282,
          "dist_from_actual": 0.2
        }
      },
      {
        "address": "CNR NOOSA DRIVE & SUNSHINE BEACH RD, NOOSA HEADS, QLD, Australia",
        "lat": -26.3964,
        "lon": 153.089263,
        "result": {
          "address": "CNR NOOSA DRIVE & SUNSHINE BEACH RD, NOOSA HEADS, QLD, Australia",
          "geocode_address": "Noosa Heads, QLD, Australia",
          "lat": -26.396365,
          "lon": 153.090642,
          "dist_from_actual": 0.1
        }
      },
      {
        "address": "LEVEL 3 - 44 MUSK AVENUE, KELVIN GROVE, QLD, Australia",
        "lat": -27.453366,
        "lon": 153.013238,
        "result": {
          "address": "LEVEL 3 - 44 MUSK AVENUE, KELVIN GROVE, QLD, Australia",
          "geocode_address": "44 Musk Avenue, Kelvin Grove, QLD, Australia",
          "lat": -27.453709,
          "lon": 153.013498,
          "dist_from_actual": 0.0
        }
      },
      {
        "address": "421 ANNERLEY ROAD DEL TUES - FRI, ANNERLEY, QLD, Australia",
        "lat": -27.508276,
        "lon": 153.032396,
        "result": {
          "address": "421 ANNERLEY ROAD DEL TUES - FRI, ANNERLEY, QLD, Australia",
          "geocode_address": "Annerley, QLD, Australia",
          "lat": -27.514493,
          "lon": 153.029836,
          "dist_from_actual": 0.7
        }
      },
      {
        "address": "Centre Commercial Des Raguenets, 95210 St Gratien, France",
        "lat": 48.961582,
        "lon": 2.284699,
        "result": {
          "address": "Centre Commercial Des Raguenets, 95210 St Gratien, France",
          "geocode_address": "95210, Saint-Gratien, France",
          "lat": 48.968972,
          "lon": 2.285181,
          "dist_from_actual": 0.8
        }
      },
      {
        "address": "6 T Place Rollon, 95770 Saint Clair Sur Epte, France",
        "lat": 49.206672,
        "lon": 1.67901,
        "result": {
          "address": "6 T Place Rollon, 95770 Saint Clair Sur Epte, France",
          "geocode_address": "Saint-Clair-sur-Epte, France",
          "lat": 49.20779,
          "lon": 1.68118,
          "dist_from_actual": 0.2
        }
      }
    ],
    "duration": 4.0,
    "quality": {
      "bad": 17,
      "good": 24,
      "error": 2,
      "imprecise": 2
    }
  },
  "Google": {
    "output": [
      {
        "address": "Unit 209, Pine Close, Newhaven BN9 0DH",
        "lat": 50.800109,
        "lon": 0.055496,
        "result": {
          "address": "Unit 209, Pine Close, Newhaven BN9 0DH",
          "geocode_address": "Pine Close, Avis Way, Newhaven BN9 0DH, UK",
          "lat": 50.80010559999999,
          "lon": 0.0555423,
          "dist_from_actual": 0.0
        }
      },
      {
        "address": "Unit 209, Pine Close, Newhaven BN9 0DH, GBR",
        "lat": 50.800109,
        "lon": 0.055496,
        "result": {
          "address": "Unit 209, Pine Close, Newhaven BN9 0DH, GBR",
          "geocode_address": "Pine Close, Avis Way, Newhaven BN9 0DH, UK",
          "lat": 50.80010559999999,
          "lon": 0.0555423,
          "dist_from_actual": 0.0
        }
      },
      {
        "address": "Pine Close, Newhaven BN9 0DH",
        "lat": 50.800109,
        "lon": 0.055496,
        "result": {
          "address": "Pine Close, Newhaven BN9 0DH",
          "geocode_address": "Pine Close, Avis Way, Newhaven BN9 0DH, UK",
          "lat": 50.80010559999999,
          "lon": 0.0555423,
          "dist_from_actual": 0.0
        }
      },
      {
        "address": "Pine Close, Newhaven BN9 0DH, GBR",
        "lat": 50.800109,
        "lon": 0.055496,
        "result": {
          "address": "Pine Close, Newhaven BN9 0DH, GBR",
          "geocode_address": "Pine Close, Avis Way, Newhaven BN9 0DH, UK",
          "lat": 50.80010559999999,
          "lon": 0.0555423,
          "dist_from_actual": 0.0
        }
      },
      {
        "address": "51 George Lane, London, England, E18 1LN, GBR",
        "lat": 51.591142,
        "lon": 0.02896,
        "result": {
          "address": "51 George Lane, London, England, E18 1LN, GBR",
          "geocode_address": "51 George Ln, London E18 1LN, UK",
          "lat": 51.5911699,
          "lon": 0.0290013,
          "dist_from_actual": 0.0
        }
      },
      {
        "address": "51 George Lane, London, England, E18 1, GBR",
        "lat": 51.591142,
        "lon": 0.02896,
        "result": {
          "address": "51 George Lane, London, England, E18 1, GBR",
          "geocode_address": "51 George Ln, London E18 1LN, UK",
          "lat": 51.5911699,
          "lon": 0.0290013,
          "dist_from_actual": 0.0
        }
      },
      {
        "address": "14 A. van Leeuwenhoekweg, 2408 AM, Alphen a d Rijn, Nederland",
        "lat": 52.128643,
        "lon": 4.645307,
        "result": {
          "address": "14 A. van Leeuwenhoekweg, 2408 AM, Alphen a d Rijn, Nederland",
          "geocode_address": "Van Leeuwenhoekweg 14, 2731 AB Benthuizen, Netherlands",
          "lat": 52.0786039,
          "lon": 4.5393377,
          "dist_from_actual": 9.1
        }
      },
      {
        "address": "A, Van Leeuwenhoekweg 14, 2408 AM Alphen aan den Rijn, Netherlands",
        "lat": 52.128643,
        "lon": 4.645307,
        "result": {
          "address": "A, Van Leeuwenhoekweg 14, 2408 AM Alphen aan den Rijn, Netherlands",
          "geocode_address": "Antonie van Leeuwenhoekweg 14, 2408 AM Alphen aan den Rijn, Netherlands",
          "lat": 52.12887,
          "lon": 4.6453283,
          "dist_from_actual": 0.0
        }
      },
      {
        "address": "Reiver Garage Services, Duns TD11",
        "lat": 55.782252,
        "lon": -2.338105,
        "result": {
          "address": "Reiver Garage Services, Duns TD11",
          "geocode_address": "A6112, Duns TD11 3DZ, UK",
          "lat": 55.78228619999999,
          "lon": -2.3381926,
          "dist_from_actual": 0.0
        }
      },
      {
        "address": "Reiver Garage Services, Duns TD11, GBR",
        "lat": 55.782252,
        "lon": -2.338105,
        "result": {
          "address": "Reiver Garage Services, Duns TD11, GBR",
          "geocode_address": "A6112, Duns TD11 3DZ, UK",
          "lat": 55.78228619999999,
          "lon": -2.3381926,
          "dist_from_actual": 0.0
        }
      },
      {
        "address": "Agricar Ltd, Stirling",
        "lat": 56.140603,
        "lon": -3.984313,
        "result": {
          "address": "Agricar Ltd, Stirling",
          "geocode_address": "6 Lochside Rd, Forfar DD8 3JE, UK",
          "lat": 56.64884199999999,
          "lon": -2.8900695,
          "dist_from_actual": 87.9
        }
      },
      {
        "address": "Agricar Ltd, Stirling, United Kingdom",
        "lat": 56.140603,
        "lon": -3.984313,
        "result": {
          "address": "Agricar Ltd, Stirling, United Kingdom",
          "geocode_address": "Unit 1, The Paddock, Stirling Agricultural Centre, Stirling FK9 4RN, UK",
          "lat": 56.1405982,
          "lon": -3.9842801,
          "dist_from_actual": 0.0
        }
      },
      {
        "address": "KAAPSTADWEG 36 D 1047 AMSTERDAM",
        "lat": 52.404891,
        "lon": 4.739006,
        "result": {
          "address": "KAAPSTADWEG 36 D 1047 AMSTERDAM",
          "geocode_address": "Kaapstadweg 36, 1047 HK Amsterdam, Netherlands",
          "lat": 52.404699,
          "lon": 4.738954,
          "dist_from_actual": 0.0
        }
      },
      {
        "address": "KAAPSTADWEG 36 D 1047 AMSTERDAM, Nederland",
        "lat": 52.404891,
        "lon": 4.739006,
        "result": {
          "address": "KAAPSTADWEG 36 D 1047 AMSTERDAM, Nederland",
          "geocode_address": "Kaapstadweg 36, 1047 HK Amsterdam, Netherlands",
          "lat": 52.404699,
          "lon": 4.738954,
          "dist_from_actual": 0.0
        }
      },
      {
        "address": "Witte Paal 329",
        "lat": 52.778129,
        "lon": 4.815768,
        "result": {
          "address": "Witte Paal 329",
          "geocode_address": "Witte Paal 329, 1742 LE Schagen, Netherlands",
          "lat": 52.7783401,
          "lon": 4.815909,
          "dist_from_actual": 0.0
        }
      },
      {
        "address": "Witte Paal 329, Nederland",
        "lat": 52.778129,
        "lon": 4.815768,
        "result": {
          "address": "Witte Paal 329, Nederland",
          "geocode_address": "Witte Paal 329, 1742 LE Schagen, Netherlands",
          "lat": 52.7783401,
          "lon": 4.815909,
          "dist_from_actual": 0.0
        }
      },
      {
        "address": "Slotsweg 7",
        "lat": 52.202146,
        "lon": 6.632251,
        "result": {
          "address": "Slotsweg 7",
          "geocode_address": "Slotsweg 7, 7496 PW Hengevelde, Netherlands",
          "lat": 52.2020578,
          "lon": 6.6320996,
          "dist_from_actual": 0.0
        }
      },
      {
        "address": "Slotsweg 7, Nederland",
        "lat": 52.202146,
        "lon": 6.632251,
        "result": {
          "address": "Slotsweg 7, Nederland",
          "geocode_address": "Slotsweg 7, 7496 PW Hengevelde, Netherlands",
          "lat": 52.2020578,
          "lon": 6.6320996,
          "dist_from_actual": 0.0
        }
      },
      {
        "address": "Aalsvoort 1",
        "lat": 52.168644,
        "lon": 6.392294,
        "result": {
          "address": "Aalsvoort 1",
          "geocode_address": "Aalsvoort 1, 7241 MA Lochem, Netherlands",
          "lat": 52.1685566,
          "lon": 6.392041300000001,
          "dist_from_actual": 0.0
        }
      },
      {
        "address": "Aalsvoort 1, Nederland",
        "lat": 52.168644,
        "lon": 6.392294,
        "result": {
          "address": "Aalsvoort 1, Nederland",
          "geocode_address": "Aalsvoort 1, 7241 MA Lochem, Netherlands",
          "lat": 52.1685566,
          "lon": 6.392041300000001,
          "dist_from_actual": 0.0
        }
      },
      {
        "address": "6 DOLFIJN 1601 ENKHUIZEN",
        "lat": 52.695506,
        "lon": 5.271827,
        "result": {
          "address": "6 DOLFIJN 1601 ENKHUIZEN",
          "geocode_address": "De Dolfijn 6, 1601 MG Enkhuizen, Netherlands",
          "lat": 52.6955629,
          "lon": 5.2713584,
          "dist_from_actual": 0.0
        }
      },
      {
        "address": "6 DOLFIJN 1601 ENKHUIZEN, Nederland",
        "lat": 52.695506,
        "lon": 5.271827,
        "result": {
          "address": "6 DOLFIJN 1601 ENKHUIZEN, Nederland",
          "geocode_address": "De Dolfijn 6, 1601 MG Enkhuizen, Netherlands",
          "lat": 52.6955629,
          "lon": 5.2713584,
          "dist_from_actual": 0.0
        }
      },
      {
        "address": "De Huchtstraat 5 1327 Almere",
        "lat": 52.3595,
        "lon": 5.258741,
        "result": {
          "address": "De Huchtstraat 5 1327 Almere",
          "geocode_address": "De Huchtstraat 5, 1327 EA Almere, Netherlands",
          "lat": 52.3596432,
          "lon": 5.258358299999999,
          "dist_from_actual": 0.0
        }
      },
      {
        "address": "De Huchtstraat 5 1327 Almere, Nederland",
        "lat": 52.3595,
        "lon": 5.258741,
        "result": {
          "address": "De Huchtstraat 5 1327 Almere, Nederland",
          "geocode_address": "De Huchtstraat 5, 1327 EA Almere, Netherlands",
          "lat": 52.3596432,
          "lon": 5.258358299999999,
          "dist_from_actual": 0.0
        }
      },
      {
        "address": "DONAUWEG 11 1011 AMSTERDAM",
        "lat": 52.394527,
        "lon": 4.838175,
        "result": {
          "address": "DONAUWEG 11 1011 AMSTERDAM",
          "geocode_address": "Donauweg 11, 1043 AJ Amsterdam, Netherlands",
          "lat": 52.3940947,
          "lon": 4.8386602,
          "dist_from_actual": 0.1
        }
      },
      {
        "address": "DONAUWEG 11 1011 AMSTERDAM, Nederland",
        "lat": 52.394527,
        "lon": 4.838175,
        "result": {
          "address": "DONAUWEG 11 1011 AMSTERDAM, Nederland",
          "geocode_address": "Donauweg 11, 1043 AJ Amsterdam, Netherlands",
          "lat": 52.3940947,
          "lon": 4.8386602,
          "dist_from_actual": 0.1
        }
      },
      {
        "address": "STUARTWEG 10 4131 VIANEN",
        "lat": 51.984047,
        "lon": 5.099642,
        "result": {
          "address": "STUARTWEG 10 4131 VIANEN",
          "geocode_address": "Stuartweg 10, 4131 NJ Vianen, Netherlands",
          "lat": 51.984061,
          "lon": 5.0988418,
          "dist_from_actual": 0.1
        }
      },
      {
        "address": "STUARTWEG 10 4131 VIANEN, Nederland",
        "lat": 51.984047,
        "lon": 5.099642,
        "result": {
          "address": "STUARTWEG 10 4131 VIANEN, Nederland",
          "geocode_address": "Stuartweg 10, 4131 NJ Vianen, Netherlands",
          "lat": 51.984061,
          "lon": 5.0988418,
          "dist_from_actual": 0.1
        }
      },
      {
        "address": "Oude Middenweg 237, Leidshendam, NLD",
        "lat": 52.075059,
        "lon": 4.403634,
        "result": {
          "address": "Oude Middenweg 237, Leidshendam, NLD",
          "geocode_address": "Oude Middenweg 237, 2491 AH Den Haag, Netherlands",
          "lat": 52.07522729999999,
          "lon": 4.4032198,
          "dist_from_actual": 0.0
        }
      },
      {
        "address": "Plantage 12, Oude Wetering, NLD",
        "lat": 52.207195,
        "lon": 4.647462,
        "result": {
          "address": "Plantage 12, Oude Wetering, NLD",
          "geocode_address": "Plantage 12, 2377 AG Oude Wetering, Netherlands",
          "lat": 52.2072271,
          "lon": 4.6472625,
          "dist_from_actual": 0.0
        }
      },
      {
        "address": "HOBARTS GARAGE ##, KILCOY, QLD, Australia",
        "lat": -26.943609,
        "lon": 152.565254,
        "result": {
          "address": "HOBARTS GARAGE ##, KILCOY, QLD, Australia",
          "geocode_address": "58 Mary St, Kilcoy QLD 4515, Australia",
          "lat": -26.9435608,
          "lon": 152.5654085,
          "dist_from_actual": 0.0
        }
      },
      {
        "address": "2/97 ARCHER STREET, WOODFORD, QLD, Australia",
        "lat": -26.95362,
        "lon": 152.777805,
        "result": {
          "address": "2/97 ARCHER STREET, WOODFORD, QLD, Australia",
          "geocode_address": "2/97 Archer St, Woodford QLD 4514, Australia",
          "lat": -26.9535538,
          "lon": 152.7779345,
          "dist_from_actual": 0.0
        }
      },
      {
        "address": "0685 - BP ARCHERFIELD COMMERCIAL, ARCHERFIELD, QLD, Australia",
        "lat": -27.565294,
        "lon": 152.998437,
        "result": {
          "address": "0685 - BP ARCHERFIELD COMMERCIAL, ARCHERFIELD, QLD, Australia",
          "geocode_address": "Corner Randolph St and, Boundary Rd, Archerfield QLD 4108, Australia",
          "lat": -27.5655748,
          "lon": 152.998347,
          "dist_from_actual": 0.0
        }
      },
      {
        "address": "S480323 MAZDA H/O - SOUTHPORT MAZDA, ARUNDEL, QLD, Australia",
        "lat": 27.967878,
        "lon": 153.409699,
        "result": {
          "address": "S480323 MAZDA H/O - SOUTHPORT MAZDA, ARUNDEL, QLD, Australia",
          "geocode_address": "Cnr Bay St &, High St, Southport QLD 4215, Australia",
          "lat": -27.967841,
          "lon": 153.4097885,
          "dist_from_actual": 6219.8
        }
      },
      {
        "address": "SY1 3TJ, GBR",
        "lat": 52.745344,
        "lon": -2.739563,
        "result": {
          "address": "SY1 3TJ, GBR",
          "geocode_address": "Henry Cl, Shrewsbury SY1 3TJ, UK",
          "lat": 52.7450671,
          "lon": -2.740165,
          "dist_from_actual": 0.1
        }
      },
      {
        "address": "B11 2PP, GBR",
        "lat": 52.461279,
        "lon": -1.855262,
        "result": {
          "address": "B11 2PP, GBR",
          "geocode_address": "Armoury Rd, Birmingham B11 2PP, UK",
          "lat": 52.46159410000001,
          "lon": -1.8554498,
          "dist_from_actual": 0.0
        }
      },
      {
        "address": "MK11 3EW DELIVER 12/4, GBR",
        "lat": 52.045579,
        "lon": -0.823664,
        "result": {
          "address": "MK11 3EW DELIVER 12/4, GBR",
          "geocode_address": "Milton Keynes MK11 3EW, UK",
          "lat": 52.0444527,
          "lon": -0.8239652,
          "dist_from_actual": 0.1
        }
      },
      {
        "address": "West Midlands DY9 7ND, GBR",
        "lat": 52.453528,
        "lon": -2.130114,
        "result": {
          "address": "West Midlands DY9 7ND, GBR",
          "geocode_address": "Stourbridge DY9 7ND, UK",
          "lat": 52.4531944,
          "lon": -2.1309884,
          "dist_from_actual": 0.1
        }
      },
      {
        "address": "Unit 17D, Gainsborough Trading Estate, Rufford Rd, Stourbridge DY9 7ND, United Kingdom",
        "lat": 52.453528,
        "lon": -2.130114,
        "result": {
          "address": "Unit 17D, Gainsborough Trading Estate, Rufford Rd, Stourbridge DY9 7ND, United Kingdom",
          "geocode_address": "Gainsborough Trading Estate, Rufford Rd, Stourbridge DY9 7ND, UK",
          "lat": 52.4531755,
          "lon": -2.1307789,
          "dist_from_actual": 0.1
        }
      },
      {
        "address": "MAIN ST & KATH FITZGERALD DVE, SAMFORD, QLD, Australia",
        "lat": -27.372564,
        "lon": 152.886251,
        "result": {
          "address": "MAIN ST & KATH FITZGERALD DVE, SAMFORD, QLD, Australia",
          "geocode_address": "Kath Fitzgerald Dr, Samford Village QLD 4520, Australia",
          "lat": -27.3721224,
          "lon": 152.8860941,
          "dist_from_actual": 0.1
        }
      },
      {
        "address": "CNR NOOSA DRIVE & SUNSHINE BEACH RD, NOOSA HEADS, QLD, Australia",
        "lat": -26.3964,
        "lon": 153.089263,
        "result": {
          "address": "CNR NOOSA DRIVE & SUNSHINE BEACH RD, NOOSA HEADS, QLD, Australia",
          "geocode_address": "Sunshine Beach Rd, Noosa Heads QLD 4567, Australia",
          "lat": -26.3978603,
          "lon": 153.0913358,
          "dist_from_actual": 0.3
        }
      },
      {
        "address": "LEVEL 3 - 44 MUSK AVENUE, KELVIN GROVE, QLD, Australia",
        "lat": -27.453366,
        "lon": 153.013238,
        "result": {
          "address": "LEVEL 3 - 44 MUSK AVENUE, KELVIN GROVE, QLD, Australia",
          "geocode_address": "3/44 Musk Ave, Kelvin Grove QLD 4059, Australia",
          "lat": -27.4536883,
          "lon": 153.0135508,
          "dist_from_actual": 0.0
        }
      },
      {
        "address": "421 ANNERLEY ROAD DEL TUES - FRI, ANNERLEY, QLD, Australia",
        "lat": -27.508276,
        "lon": 153.032396,
        "result": {
          "address": "421 ANNERLEY ROAD DEL TUES - FRI, ANNERLEY, QLD, Australia",
          "geocode_address": "Nursing Centre, 421 Annerley Rd, Annerley QLD 4103, Australia",
          "lat": -27.5083201,
          "lon": 153.0321493,
          "dist_from_actual": 0.0
        }
      },
      {
        "address": "Centre Commercial Des Raguenets, 95210 St Gratien, France",
        "lat": 48.961582,
        "lon": 2.284699,
        "result": {
          "address": "Centre Commercial Des Raguenets, 95210 St Gratien, France",
          "geocode_address": "Rue des Raguenets, 95210 Saint-Gratien, France",
          "lat": 48.9602107,
          "lon": 2.2835856,
          "dist_from_actual": 0.2
        }
      },
      {
        "address": "6 T Place Rollon, 95770 Saint Clair Sur Epte, France",
        "lat": 49.206672,
        "lon": 1.67901,
        "result": {
          "address": "6 T Place Rollon, 95770 Saint Clair Sur Epte, France",
          "geocode_address": "6 Pl. Rollon, 95770 Saint-Clair-sur-Epte, France",
          "lat": 49.2067029,
          "lon": 1.6789921,
          "dist_from_actual": 0.0
        }
      }
    ],
    "duration": 2.1,
    "quality": {
      "good": 40,
      "bad": 3,
      "imprecise": 2
    }
  },
  "OpenCage": {
    "output": [
      {
        "address": "Unit 209, Pine Close, Newhaven BN9 0DH",
        "lat": 50.800109,
        "lon": 0.055496,
        "result": {
          "address": "Unit 209, Pine Close, Newhaven BN9 0DH",
          "geocode_address": "Newhaven, BN9 0DH, United Kingdom",
          "lat": 50.800172,
          "lon": 0.055562,
          "dist_from_actual": 0.0
        }
      },
      {
        "address": "Unit 209, Pine Close, Newhaven BN9 0DH, GBR",
        "lat": 50.800109,
        "lon": 0.055496,
        "result": {
          "address": "Unit 209, Pine Close, Newhaven BN9 0DH, GBR",
          "geocode_address": "Newhaven, BN9 0DH, United Kingdom",
          "lat": 50.800172,
          "lon": 0.055562,
          "dist_from_actual": 0.0
        }
      },
      {
        "address": "Pine Close, Newhaven BN9 0DH",
        "lat": 50.800109,
        "lon": 0.055496,
        "result": {
          "address": "Pine Close, Newhaven BN9 0DH",
          "geocode_address": "Newhaven, BN9 0DH, United Kingdom",
          "lat": 50.800172,
          "lon": 0.055562,
          "dist_from_actual": 0.0
        }
      },
      {
        "address": "Pine Close, Newhaven BN9 0DH, GBR",
        "lat": 50.800109,
        "lon": 0.055496,
        "result": {
          "address": "Pine Close, Newhaven BN9 0DH, GBR",
          "geocode_address": "Newhaven, BN9 0DH, United Kingdom",
          "lat": 50.800172,
          "lon": 0.055562,
          "dist_from_actual": 0.0
        }
      },
      {
        "address": "51 George Lane, London, England, E18 1LN, GBR",
        "lat": 51.591142,
        "lon": 0.02896,
        "result": {
          "address": "51 George Lane, London, England, E18 1LN, GBR",
          "geocode_address": "London, E18 1LN, United Kingdom",
          "lat": 51.590807,
          "lon": 0.029582,
          "dist_from_actual": 0.1
        }
      },
      {
        "address": "51 George Lane, London, England, E18 1, GBR",
        "lat": 51.591142,
        "lon": 0.02896,
        "result": {
          "address": "51 George Lane, London, England, E18 1, GBR",
          "geocode_address": "Great Barrington, Massachusetts, United States of America",
          "lat": 42.19592,
          "lon": -73.36206,
          "dist_from_actual": 5433.2
        }
      },
      {
        "address": "14 A. van Leeuwenhoekweg, 2408 AM, Alphen a d Rijn, Nederland",
        "lat": 52.128643,
        "lon": 4.645307,
        "result": {
          "address": "14 A. van Leeuwenhoekweg, 2408 AM, Alphen a d Rijn, Nederland",
          "geocode_address": "van Leeuwenhoekweg, 2731 AB Benthuizen, Netherlands",
          "lat": 52.0784685,
          "lon": 4.5389689,
          "dist_from_actual": 9.2
        }
      },
      {
        "address": "A, Van Leeuwenhoekweg 14, 2408 AM Alphen aan den Rijn, Netherlands",
        "lat": 52.128643,
        "lon": 4.645307,
        "result": {
          "address": "A, Van Leeuwenhoekweg 14, 2408 AM Alphen aan den Rijn, Netherlands",
          "geocode_address": "A. van Leeuwenhoekweg 14, 2408 AM Alphen aan den Rijn, Netherlands",
          "lat": 52.1287503,
          "lon": 4.645339,
          "dist_from_actual": 0.0
        }
      },
      {
        "address": "Reiver Garage Services, Duns TD11",
        "lat": 55.782252,
        "lon": -2.338105,
        "result": {
          "address": "Reiver Garage Services, Duns TD11",
          "geocode_address": "TD11, United Kingdom",
          "lat": 55.7879,
          "lon": -2.3144,
          "dist_from_actual": 1.6
        }
      },
      {
        "address": "Reiver Garage Services, Duns TD11, GBR",
        "lat": 55.782252,
        "lon": -2.338105,
        "result": {
          "address": "Reiver Garage Services, Duns TD11, GBR",
          "geocode_address": "Great Barrington, Massachusetts, United States of America",
          "lat": 42.19592,
          "lon": -73.36206,
          "dist_from_actual": 5148.4
        }
      },
      {
        "address": "Agricar Ltd, Stirling",
        "lat": 56.140603,
        "lon": -3.984313,
        "result": {
          "address": "Agricar Ltd, Stirling",
          "geocode_address": "Stirling, Scotland, United Kingdom",
          "lat": 56.11903,
          "lon": -3.93682,
          "dist_from_actual": 3.8
        }
      },
      {
        "address": "Agricar Ltd, Stirling, United Kingdom",
        "lat": 56.140603,
        "lon": -3.984313,
        "result": {
          "address": "Agricar Ltd, Stirling, United Kingdom",
          "geocode_address": "Stirling, Scotland, United Kingdom",
          "lat": 56.11903,
          "lon": -3.93682,
          "dist_from_actual": 3.8
        }
      },
      {
        "address": "KAAPSTADWEG 36 D 1047 AMSTERDAM",
        "lat": 52.404891,
        "lon": 4.739006,
        "result": {
          "address": "KAAPSTADWEG 36 D 1047 AMSTERDAM",
          "geocode_address": "Kaapstadweg, Amsterdam, Netherlands",
          "lat": 52.4079119,
          "lon": 4.7443907,
          "dist_from_actual": 0.5
        }
      },
      {
        "address": "KAAPSTADWEG 36 D 1047 AMSTERDAM, Nederland",
        "lat": 52.404891,
        "lon": 4.739006,
        "result": {
          "address": "KAAPSTADWEG 36 D 1047 AMSTERDAM, Nederland",
          "geocode_address": "Kaapstadweg, Amsterdam, Netherlands",
          "lat": 52.4079119,
          "lon": 4.7443907,
          "dist_from_actual": 0.5
        }
      },
      {
        "address": "Witte Paal 329",
        "lat": 52.778129,
        "lon": 4.815768,
        "result": {
          "address": "Witte Paal 329",
          "geocode_address": "Witte Paal 329, 1742 LE Schagen, Netherlands",
          "lat": 52.7782889,
          "lon": 4.8156256,
          "dist_from_actual": 0.0
        }
      },
      {
        "address": "Witte Paal 329, Nederland",
        "lat": 52.778129,
        "lon": 4.815768,
        "result": {
          "address": "Witte Paal 329, Nederland",
          "geocode_address": "Witte Paal 329, 1742 LE Schagen, Netherlands",
          "lat": 52.7782889,
          "lon": 4.8156256,
          "dist_from_actual": 0.0
        }
      },
      {
        "address": "Slotsweg 7",
        "lat": 52.202146,
        "lon": 6.632251,
        "result": {
          "address": "Slotsweg 7",
          "geocode_address": "Opel Hartgerink Hengevelde, Slotsweg 7, 7496 PW Hengevelde, Netherlands",
          "lat": 52.2019633,
          "lon": 6.6322502,
          "dist_from_actual": 0.0
        }
      },
      {
        "address": "Slotsweg 7, Nederland",
        "lat": 52.202146,
        "lon": 6.632251,
        "result": {
          "address": "Slotsweg 7, Nederland",
          "geocode_address": "Opel Hartgerink Hengevelde, Slotsweg 7, 7496 PW Hengevelde, Netherlands",
          "lat": 52.2019633,
          "lon": 6.6322502,
          "dist_from_actual": 0.0
        }
      },
      {
        "address": "Aalsvoort 1",
        "lat": 52.168644,
        "lon": 6.392294,
        "result": {
          "address": "Aalsvoort 1",
          "geocode_address": "Opel Hartgerink Lochem, Aalsvoort 1, 7241 MA Lochem, Netherlands",
          "lat": 52.168624,
          "lon": 6.392173,
          "dist_from_actual": 0.0
        }
      },
      {
        "address": "Aalsvoort 1, Nederland",
        "lat": 52.168644,
        "lon": 6.392294,
        "result": {
          "address": "Aalsvoort 1, Nederland",
          "geocode_address": "Opel Hartgerink Lochem, Aalsvoort 1, 7241 MA Lochem, Netherlands",
          "lat": 52.168624,
          "lon": 6.392173,
          "dist_from_actual": 0.0
        }
      },
      {
        "address": "6 DOLFIJN 1601 ENKHUIZEN",
        "lat": 52.695506,
        "lon": 5.271827,
        "result": {
          "address": "6 DOLFIJN 1601 ENKHUIZEN",
          "geocode_address": "De Dolfijn 6, 1601 MG Enkhuizen, Netherlands",
          "lat": 52.6955045,
          "lon": 5.2715024,
          "dist_from_actual": 0.0
        }
      },
      {
        "address": "6 DOLFIJN 1601 ENKHUIZEN, Nederland",
        "lat": 52.695506,
        "lon": 5.271827,
        "result": {
          "address": "6 DOLFIJN 1601 ENKHUIZEN, Nederland",
          "geocode_address": "De Dolfijn 6, 1601 MG Enkhuizen, Netherlands",
          "lat": 52.6955045,
          "lon": 5.2715024,
          "dist_from_actual": 0.0
        }
      },
      {
        "address": "De Huchtstraat 5 1327 Almere",
        "lat": 52.3595,
        "lon": 5.258741,
        "result": {
          "address": "De Huchtstraat 5 1327 Almere",
          "geocode_address": "De Huchtstraat 5, 1327 EA Almere, Netherlands",
          "lat": 52.3596851,
          "lon": 5.2583932,
          "dist_from_actual": 0.0
        }
      },
      {
        "address": "De Huchtstraat 5 1327 Almere, Nederland",
        "lat": 52.3595,
        "lon": 5.258741,
        "result": {
          "address": "De Huchtstraat 5 1327 Almere, Nederland",
          "geocode_address": "De Huchtstraat 5, 1327 EA Almere, Netherlands",
          "lat": 52.3596851,
          "lon": 5.2583932,
          "dist_from_actual": 0.0
        }
      },
      {
        "address": "DONAUWEG 11 1011 AMSTERDAM",
        "lat": 52.394527,
        "lon": 4.838175,
        "result": {
          "address": "DONAUWEG 11 1011 AMSTERDAM",
          "geocode_address": "Donauweg 11A, 1043 AJ Amsterdam, Netherlands",
          "lat": 52.394324,
          "lon": 4.8380774,
          "dist_from_actual": 0.0
        }
      },
      {
        "address": "DONAUWEG 11 1011 AMSTERDAM, Nederland",
        "lat": 52.394527,
        "lon": 4.838175,
        "result": {
          "address": "DONAUWEG 11 1011 AMSTERDAM, Nederland",
          "geocode_address": "Donauweg 11A, 1043 AJ Amsterdam, Netherlands",
          "lat": 52.394324,
          "lon": 4.8380774,
          "dist_from_actual": 0.0
        }
      },
      {
        "address": "STUARTWEG 10 4131 VIANEN",
        "lat": 51.984047,
        "lon": 5.099642,
        "result": {
          "address": "STUARTWEG 10 4131 VIANEN",
          "geocode_address": "Stuartweg 10, 4131 NJ Vianen, Netherlands",
          "lat": 51.9842278,
          "lon": 5.0995298,
          "dist_from_actual": 0.0
        }
      },
      {
        "address": "STUARTWEG 10 4131 VIANEN, Nederland",
        "lat": 51.984047,
        "lon": 5.099642,
        "result": {
          "address": "STUARTWEG 10 4131 VIANEN, Nederland",
          "geocode_address": "Stuartweg 10, 4131 NJ Vianen, Netherlands",
          "lat": 51.9842278,
          "lon": 5.0995298,
          "dist_from_actual": 0.0
        }
      },
      {
        "address": "Oude Middenweg 237, Leidshendam, NLD",
        "lat": 52.075059,
        "lon": 4.403634,
        "result": {
          "address": "Oude Middenweg 237, Leidshendam, NLD",
          "geocode_address": "Nuevo Laredo, Tamaulipas, Mexico",
          "lat": 27.47629,
          "lon": -99.51639,
          "dist_from_actual": 8510.9
        }
      },
      {
        "address": "Plantage 12, Oude Wetering, NLD",
        "lat": 52.207195,
        "lon": 4.647462,
        "result": {
          "address": "Plantage 12, Oude Wetering, NLD",
          "geocode_address": "Nuevo Laredo, Tamaulipas, Mexico",
          "lat": 27.47629,
          "lon": -99.51639,
          "dist_from_actual": 8518.8
        }
      },
      {
        "address": "HOBARTS GARAGE ##, KILCOY, QLD, Australia",
        "lat": -26.943609,
        "lon": 152.565254,
        "result": {
          "address": "HOBARTS GARAGE ##, KILCOY, QLD, Australia",
          "geocode_address": "Kilcoy, Somerset, Australia",
          "lat": -26.943,
          "lon": 152.56545,
          "dist_from_actual": 0.1
        }
      },
      {
        "address": "2/97 ARCHER STREET, WOODFORD, QLD, Australia",
        "lat": -26.95362,
        "lon": 152.777805,
        "result": {
          "address": "2/97 ARCHER STREET, WOODFORD, QLD, Australia",
          "geocode_address": "Archer Street, Greater Brisbane QLD 4514, Australia",
          "lat": -26.9552749,
          "lon": 152.778376,
          "dist_from_actual": 0.2
        }
      },
      {
        "address": "0685 - BP ARCHERFIELD COMMERCIAL, ARCHERFIELD, QLD, Australia",
        "lat": -27.565294,
        "lon": 152.998437,
        "result": {
          "address": "0685 - BP ARCHERFIELD COMMERCIAL, ARCHERFIELD, QLD, Australia",
          "geocode_address": "Queensland, Australia",
          "lat": -20.0,
          "lon": 145.0,
          "dist_from_actual": 1169.8
        }
      },
      {
        "address": "S480323 MAZDA H/O - SOUTHPORT MAZDA, ARUNDEL, QLD, Australia",
        "lat": 27.967878,
        "lon": 153.409699,
        "result": {
          "address": "S480323 MAZDA H/O - SOUTHPORT MAZDA, ARUNDEL, QLD, Australia",
          "geocode_address": "Arundel, Gold Coast, Australia",
          "lat": -27.93768,
          "lon": 153.36302,
          "dist_from_actual": 6216.4
        }
      },
      {
        "address": "SY1 3TJ, GBR",
        "lat": 52.745344,
        "lon": -2.739563,
        "result": {
          "address": "SY1 3TJ, GBR",
          "geocode_address": "Shrewsbury, SY1 3TJ, United Kingdom",
          "lat": 52.745051,
          "lon": -2.740168,
          "dist_from_actual": 0.1
        }
      },
      {
        "address": "B11 2PP, GBR",
        "lat": 52.461279,
        "lon": -1.855262,
        "result": {
          "address": "B11 2PP, GBR",
          "geocode_address": "Birmingham, B11 2PP, United Kingdom",
          "lat": 52.46158,
          "lon": -1.855455,
          "dist_from_actual": 0.0
        }
      },
      {
        "address": "MK11 3EW DELIVER 12/4, GBR",
        "lat": 52.045579,
        "lon": -0.823664,
        "result": {
          "address": "MK11 3EW DELIVER 12/4, GBR",
          "geocode_address": "Abbey Hill, MK11 3EW, United Kingdom",
          "lat": 52.044426,
          "lon": -0.823966,
          "dist_from_actual": 0.1
        }
      },
      {
        "address": "West Midlands DY9 7ND, GBR",
        "lat": 52.453528,
        "lon": -2.130114,
        "result": {
          "address": "West Midlands DY9 7ND, GBR",
          "geocode_address": "Dudley, DY9 7ND, United Kingdom",
          "lat": 52.453194,
          "lon": -2.130988,
          "dist_from_actual": 0.1
        }
      },
      {
        "address": "Unit 17D, Gainsborough Trading Estate, Rufford Rd, Stourbridge DY9 7ND, United Kingdom",
        "lat": 52.453528,
        "lon": -2.130114,
        "result": {
          "address": "Unit 17D, Gainsborough Trading Estate, Rufford Rd, Stourbridge DY9 7ND, United Kingdom",
          "geocode_address": "Dudley, DY9 7ND, United Kingdom",
          "lat": 52.453194,
          "lon": -2.130988,
          "dist_from_actual": 0.1
        }
      },
      {
        "address": "MAIN ST & KATH FITZGERALD DVE, SAMFORD, QLD, Australia",
        "lat": -27.372564,
        "lon": 152.886251,
        "result": {
          "address": "MAIN ST & KATH FITZGERALD DVE, SAMFORD, QLD, Australia",
          "geocode_address": "KATH FITZGERALD DR, SAMFORD VILLAGE QLD 4520, Australia",
          "lat": -27.3721608,
          "lon": 152.885482,
          "dist_from_actual": 0.1
        }
      },
      {
        "address": "CNR NOOSA DRIVE & SUNSHINE BEACH RD, NOOSA HEADS, QLD, Australia",
        "lat": -26.3964,
        "lon": 153.089263,
        "result": {
          "address": "CNR NOOSA DRIVE & SUNSHINE BEACH RD, NOOSA HEADS, QLD, Australia",
          "geocode_address": "SUNSHINE BEACH RD, NOOSA HEADS QLD 4567, Australia",
          "lat": -26.3976141,
          "lon": 153.0915084,
          "dist_from_actual": 0.3
        }
      },
      {
        "address": "LEVEL 3 - 44 MUSK AVENUE, KELVIN GROVE, QLD, Australia",
        "lat": -27.453366,
        "lon": 153.013238,
        "result": {
          "address": "LEVEL 3 - 44 MUSK AVENUE, KELVIN GROVE, QLD, Australia",
          "geocode_address": "Coco Cozy, 44 Musk Avenue, Kelvin Grove QLD 4059, Australia",
          "lat": -27.4539309,
          "lon": 153.013801,
          "dist_from_actual": 0.1
        }
      },
      {
        "address": "421 ANNERLEY ROAD DEL TUES - FRI, ANNERLEY, QLD, Australia",
        "lat": -27.508276,
        "lon": 153.032396,
        "result": {
          "address": "421 ANNERLEY ROAD DEL TUES - FRI, ANNERLEY, QLD, Australia",
          "geocode_address": "421 ANNERLEY RD, ANNERLEY QLD 4103, Australia",
          "lat": -27.5083076,
          "lon": 153.0321553,
          "dist_from_actual": 0.0
        }
      },
      {
        "address": "Centre Commercial Des Raguenets, 95210 St Gratien, France",
        "lat": 48.961582,
        "lon": 2.284699,
        "result": {
          "address": "Centre Commercial Des Raguenets, 95210 St Gratien, France",
          "geocode_address": "95210 Arrondissement de Sarcelles, France",
          "lat": 48.9735,
          "lon": 2.2873,
          "dist_from_actual": 1.3
        }
      },
      {
        "address": "6 T Place Rollon, 95770 Saint Clair Sur Epte, France",
        "lat": 49.206672,
        "lon": 1.67901,
        "result": {
          "address": "6 T Place Rollon, 95770 Saint Clair Sur Epte, France",
          "geocode_address": "95770 Arrondissement de Pontoise, France",
          "lat": 49.2078,
          "lon": 1.6812,
          "dist_from_actual": 0.2
        }
      }
    ],
    "duration": 2.4,
    "quality": {
      "good": 29,
      "bad": 11,
      "imprecise": 5
    }
  },
  "Here": {
    "output": [
      {
        "address": "Unit 209, Pine Close, Newhaven BN9 0DH",
        "lat": 50.800109,
        "lon": 0.055496,
        "result": {
          "address": "Unit 209, Pine Close, Newhaven BN9 0DH",
          "geocode_address": "AVIS Close",
          "lat": 50.80159,
          "lon": 0.05933,
          "dist_from_actual": 0.3
        }
      },
      {
        "address": "Unit 209, Pine Close, Newhaven BN9 0DH, GBR",
        "lat": 50.800109,
        "lon": 0.055496,
        "result": {
          "address": "Unit 209, Pine Close, Newhaven BN9 0DH, GBR",
          "geocode_address": "BN9 0DH Avis Way, Newhaven, United Kingdom",
          "lat": 50.79915,
          "lon": 0.05647,
          "dist_from_actual": 0.1
        }
      },
      {
        "address": "Pine Close, Newhaven BN9 0DH",
        "lat": 50.800109,
        "lon": 0.055496,
        "result": {
          "address": "Pine Close, Newhaven BN9 0DH",
          "geocode_address": "BN9 0DH Avis Way, Newhaven, United Kingdom",
          "lat": 50.79915,
          "lon": 0.05647,
          "dist_from_actual": 0.1
        }
      },
      {
        "address": "Pine Close, Newhaven BN9 0DH, GBR",
        "lat": 50.800109,
        "lon": 0.055496,
        "result": {
          "address": "Pine Close, Newhaven BN9 0DH, GBR",
          "geocode_address": "AVIS Close",
          "lat": 50.80159,
          "lon": 0.05933,
          "dist_from_actual": 0.3
        }
      },
      {
        "address": "51 George Lane, London, England, E18 1LN, GBR",
        "lat": 51.591142,
        "lon": 0.02896,
        "result": {
          "address": "51 George Lane, London, England, E18 1LN, GBR",
          "geocode_address": "51 George Lane, London, E18 1LN, United Kingdom",
          "lat": 51.59116,
          "lon": 0.02895,
          "dist_from_actual": 0.0
        }
      },
      {
        "address": "51 George Lane, London, England, E18 1, GBR",
        "lat": 51.591142,
        "lon": 0.02896,
        "result": {
          "address": "51 George Lane, London, England, E18 1, GBR",
          "geocode_address": "51 George Lane, London, E18 1LN, United Kingdom",
          "lat": 51.59116,
          "lon": 0.02895,
          "dist_from_actual": 0.0
        }
      },
      {
        "address": "14 A. van Leeuwenhoekweg, 2408 AM, Alphen a d Rijn, Nederland",
        "lat": 52.128643,
        "lon": 4.645307,
        "result": {
          "address": "14 A. van Leeuwenhoekweg, 2408 AM, Alphen a d Rijn, Nederland",
          "geocode_address": "A. van Leeuwenhoekweg 14, 2408 AM Alphen aan den Rijn, Nederland",
          "lat": 52.12875,
          "lon": 4.64534,
          "dist_from_actual": 0.0
        }
      },
      {
        "address": "A, Van Leeuwenhoekweg 14, 2408 AM Alphen aan den Rijn, Netherlands",
        "lat": 52.128643,
        "lon": 4.645307,
        "result": {
          "address": "A, Van Leeuwenhoekweg 14, 2408 AM Alphen aan den Rijn, Netherlands",
          "geocode_address": "A. van Leeuwenhoekweg 14, 2408 AM Alphen aan den Rijn, Nederland",
          "lat": 52.12875,
          "lon": 4.64534,
          "dist_from_actual": 0.0
        }
      },
      {
        "address": "Reiver Garage Services, Duns TD11",
        "lat": 55.782252,
        "lon": -2.338105,
        "result": {
          "address": "Reiver Garage Services, Duns TD11",
          "geocode_address": "Reiver Garage Services Limited",
          "lat": 55.77494,
          "lon": -2.35336,
          "dist_from_actual": 1.3
        }
      },
      {
        "address": "Reiver Garage Services, Duns TD11, GBR",
        "lat": 55.782252,
        "lon": -2.338105,
        "result": {
          "address": "Reiver Garage Services, Duns TD11, GBR",
          "geocode_address": "Reiver Garage Services Limited",
          "lat": 55.77494,
          "lon": -2.35336,
          "dist_from_actual": 1.3
        }
      },
      {
        "address": "Agricar Ltd, Stirling",
        "lat": 56.140603,
        "lon": -3.984313,
        "result": {
          "address": "Agricar Ltd, Stirling",
          "geocode_address": "Agricar Stirling",
          "lat": 56.14071,
          "lon": -3.98436,
          "dist_from_actual": 0.0
        }
      },
      {
        "address": "Agricar Ltd, Stirling, United Kingdom",
        "lat": 56.140603,
        "lon": -3.984313,
        "result": {
          "address": "Agricar Ltd, Stirling, United Kingdom",
          "geocode_address": "Stirling, Peterhead, Scotland, United Kingdom",
          "lat": 57.46571,
          "lon": -1.79627,
          "dist_from_actual": 198.6
        }
      },
      {
        "address": "KAAPSTADWEG 36 D 1047 AMSTERDAM",
        "lat": 52.404891,
        "lon": 4.739006,
        "result": {
          "address": "KAAPSTADWEG 36 D 1047 AMSTERDAM",
          "geocode_address": "Kaapstadweg 36D, 1047 HG Amsterdam, Nederland",
          "lat": 52.40485,
          "lon": 4.73794,
          "dist_from_actual": 0.1
        }
      },
      {
        "address": "KAAPSTADWEG 36 D 1047 AMSTERDAM, Nederland",
        "lat": 52.404891,
        "lon": 4.739006,
        "result": {
          "address": "KAAPSTADWEG 36 D 1047 AMSTERDAM, Nederland",
          "geocode_address": "Kaapstadweg 36D, 1047 HG Amsterdam, Nederland",
          "lat": 52.40485,
          "lon": 4.73794,
          "dist_from_actual": 0.1
        }
      },
      {
        "address": "Witte Paal 329",
        "lat": 52.778129,
        "lon": 4.815768,
        "result": {
          "address": "Witte Paal 329",
          "geocode_address": "Witte Paal 329, 1742 LE Schagen, Nederland",
          "lat": 52.77829,
          "lon": 4.81563,
          "dist_from_actual": 0.0
        }
      },
      {
        "address": "Witte Paal 329, Nederland",
        "lat": 52.778129,
        "lon": 4.815768,
        "result": {
          "address": "Witte Paal 329, Nederland",
          "geocode_address": "Witte Paal 329, 1742 LE Schagen, Nederland",
          "lat": 52.77829,
          "lon": 4.81563,
          "dist_from_actual": 0.0
        }
      },
      {
        "address": "Slotsweg 7",
        "lat": 52.202146,
        "lon": 6.632251,
        "result": {
          "address": "Slotsweg 7",
          "geocode_address": "Slotsweg 7, 7496 PW Hengevelde, Nederland",
          "lat": 52.20197,
          "lon": 6.63224,
          "dist_from_actual": 0.0
        }
      },
      {
        "address": "Slotsweg 7, Nederland",
        "lat": 52.202146,
        "lon": 6.632251,
        "result": {
          "address": "Slotsweg 7, Nederland",
          "geocode_address": "Slotsweg 7, 7496 PW Hengevelde, Nederland",
          "lat": 52.20197,
          "lon": 6.63224,
          "dist_from_actual": 0.0
        }
      },
      {
        "address": "Aalsvoort 1",
        "lat": 52.168644,
        "lon": 6.392294,
        "result": {
          "address": "Aalsvoort 1",
          "geocode_address": "Aalsvoort 1, 7241 MA Lochem, Nederland",
          "lat": 52.16862,
          "lon": 6.39217,
          "dist_from_actual": 0.0
        }
      },
      {
        "address": "Aalsvoort 1, Nederland",
        "lat": 52.168644,
        "lon": 6.392294,
        "result": {
          "address": "Aalsvoort 1, Nederland",
          "geocode_address": "Aalsvoort 1, 7241 MA Lochem, Nederland",
          "lat": 52.16862,
          "lon": 6.39217,
          "dist_from_actual": 0.0
        }
      },
      {
        "address": "6 DOLFIJN 1601 ENKHUIZEN",
        "lat": 52.695506,
        "lon": 5.271827,
        "result": {
          "address": "6 DOLFIJN 1601 ENKHUIZEN",
          "geocode_address": "De Dolfijn 6, 1601 MG Enkhuizen, Nederland",
          "lat": 52.6955,
          "lon": 5.2715,
          "dist_from_actual": 0.0
        }
      },
      {
        "address": "6 DOLFIJN 1601 ENKHUIZEN, Nederland",
        "lat": 52.695506,
        "lon": 5.271827,
        "result": {
          "address": "6 DOLFIJN 1601 ENKHUIZEN, Nederland",
          "geocode_address": "De Dolfijn 6, 1601 MG Enkhuizen, Nederland",
          "lat": 52.6955,
          "lon": 5.2715,
          "dist_from_actual": 0.0
        }
      },
      {
        "address": "De Huchtstraat 5 1327 Almere",
        "lat": 52.3595,
        "lon": 5.258741,
        "result": {
          "address": "De Huchtstraat 5 1327 Almere",
          "geocode_address": "De Huchtstraat 5, 1327 EA Almere-Stad, Nederland",
          "lat": 52.35965,
          "lon": 5.25834,
          "dist_from_actual": 0.0
        }
      },
      {
        "address": "De Huchtstraat 5 1327 Almere, Nederland",
        "lat": 52.3595,
        "lon": 5.258741,
        "result": {
          "address": "De Huchtstraat 5 1327 Almere, Nederland",
          "geocode_address": "De Huchtstraat 5, 1327 EA Almere-Stad, Nederland",
          "lat": 52.35965,
          "lon": 5.25834,
          "dist_from_actual": 0.0
        }
      },
      {
        "address": "DONAUWEG 11 1011 AMSTERDAM",
        "lat": 52.394527,
        "lon": 4.838175,
        "result": {
          "address": "DONAUWEG 11 1011 AMSTERDAM",
          "geocode_address": "Donauweg 11, 1043 AJ Amsterdam, Nederland",
          "lat": 52.39395,
          "lon": 4.83759,
          "dist_from_actual": 0.1
        }
      },
      {
        "address": "DONAUWEG 11 1011 AMSTERDAM, Nederland",
        "lat": 52.394527,
        "lon": 4.838175,
        "result": {
          "address": "DONAUWEG 11 1011 AMSTERDAM, Nederland",
          "geocode_address": "Donauweg 11, 1043 AJ Amsterdam, Nederland",
          "lat": 52.39395,
          "lon": 4.83759,
          "dist_from_actual": 0.1
        }
      },
      {
        "address": "STUARTWEG 10 4131 VIANEN",
        "lat": 51.984047,
        "lon": 5.099642,
        "result": {
          "address": "STUARTWEG 10 4131 VIANEN",
          "geocode_address": "Stuartweg 10, 4131 NJ Vianen, Nederland",
          "lat": 51.98423,
          "lon": 5.09953,
          "dist_from_actual": 0.0
        }
      },
      {
        "address": "STUARTWEG 10 4131 VIANEN, Nederland",
        "lat": 51.984047,
        "lon": 5.099642,
        "result": {
          "address": "STUARTWEG 10 4131 VIANEN, Nederland",
          "geocode_address": "Stuartweg 10, 4131 NJ Vianen, Nederland",
          "lat": 51.98423,
          "lon": 5.09953,
          "dist_from_actual": 0.0
        }
      },
      {
        "address": "Oude Middenweg 237, Leidshendam, NLD",
        "lat": 52.075059,
        "lon": 4.403634,
        "result": {
          "address": "Oude Middenweg 237, Leidshendam, NLD",
          "geocode_address": "Oude Haven, 2271 Voorburg, Nederland",
          "lat": 52.06727,
          "lon": 4.36596,
          "dist_from_actual": 2.7
        }
      },
      {
        "address": "Plantage 12, Oude Wetering, NLD",
        "lat": 52.207195,
        "lon": 4.647462,
        "result": {
          "address": "Plantage 12, Oude Wetering, NLD",
          "geocode_address": "Plantage 12, 2377 AG Oude Wetering, Nederland",
          "lat": 52.20721,
          "lon": 4.64732,
          "dist_from_actual": 0.0
        }
      },
      {
        "address": "HOBARTS GARAGE ##, KILCOY, QLD, Australia",
        "lat": -26.943609,
        "lon": 152.565254,
        "result": {
          "address": "HOBARTS GARAGE ##, KILCOY, QLD, Australia",
          "geocode_address": "Hobart's Garage",
          "lat": -26.94389,
          "lon": 152.56545,
          "dist_from_actual": 0.0
        }
      },
      {
        "address": "2/97 ARCHER STREET, WOODFORD, QLD, Australia",
        "lat": -26.95362,
        "lon": 152.777805,
        "result": {
          "address": "2/97 ARCHER STREET, WOODFORD, QLD, Australia",
          "geocode_address": "97 Archer St, Woodford QLD 4514, Australia",
          "lat": -26.95364,
          "lon": 152.77795,
          "dist_from_actual": 0.0
        }
      },
      {
        "address": "0685 - BP ARCHERFIELD COMMERCIAL, ARCHERFIELD, QLD, Australia",
        "lat": -27.565294,
        "lon": 152.998437,
        "result": {
          "address": "0685 - BP ARCHERFIELD COMMERCIAL, ARCHERFIELD, QLD, Australia",
          "geocode_address": "Australia Post",
          "lat": -27.56733,
          "lon": 153.02225,
          "dist_from_actual": 2.4
        }
      },
      {
        "address": "S480323 MAZDA H/O - SOUTHPORT MAZDA, ARUNDEL, QLD, Australia",
        "lat": 27.967878,
        "lon": 153.409699,
        "result": {
          "address": "S480323 MAZDA H/O - SOUTHPORT MAZDA, ARUNDEL, QLD, Australia",
          "geocode_address": "United Petroleum",
          "lat": -27.92364,
          "lon": 153.35454,
          "dist_from_actual": 6214.9
        }
      },
      {
        "address": "SY1 3TJ, GBR",
        "lat": 52.745344,
        "lon": -2.739563,
        "result": {
          "address": "SY1 3TJ, GBR",
          "geocode_address": "SY1 3TJ Henry Close, Shrewsbury, United Kingdom",
          "lat": 52.74497,
          "lon": -2.74013,
          "dist_from_actual": 0.1
        }
      },
      {
        "address": "B11 2PP, GBR",
        "lat": 52.461279,
        "lon": -1.855262,
        "result": {
          "address": "B11 2PP, GBR",
          "geocode_address": "B11 2PP Armoury Road, Birmingham, United Kingdom",
          "lat": 52.46147,
          "lon": -1.85593,
          "dist_from_actual": 0.0
        }
      },
      {
        "address": "MK11 3EW DELIVER 12/4, GBR",
        "lat": 52.045579,
        "lon": -0.823664,
        "result": null
      },
      {
        "address": "West Midlands DY9 7ND, GBR",
        "lat": 52.453528,
        "lon": -2.130114,
        "result": {
          "address": "West Midlands DY9 7ND, GBR",
          "geocode_address": "DY9 7ND Rufford Road, Stourbridge, United Kingdom",
          "lat": 52.45312,
          "lon": -2.13213,
          "dist_from_actual": 0.1
        }
      },
      {
        "address": "Unit 17D, Gainsborough Trading Estate, Rufford Rd, Stourbridge DY9 7ND, United Kingdom",
        "lat": 52.453528,
        "lon": -2.130114,
        "result": {
          "address": "Unit 17D, Gainsborough Trading Estate, Rufford Rd, Stourbridge DY9 7ND, United Kingdom",
          "geocode_address": "Gainsborough Trad Estate",
          "lat": 52.45254,
          "lon": -2.13209,
          "dist_from_actual": 0.2
        }
      },
      {
        "address": "MAIN ST & KATH FITZGERALD DVE, SAMFORD, QLD, Australia",
        "lat": -27.372564,
        "lon": 152.886251,
        "result": {
          "address": "MAIN ST & KATH FITZGERALD DVE, SAMFORD, QLD, Australia",
          "geocode_address": "Kath Fitzgerald Dr & Main St, Samford Village QLD 4520, Australia",
          "lat": -27.37224,
          "lon": 152.88679,
          "dist_from_actual": 0.1
        }
      },
      {
        "address": "CNR NOOSA DRIVE & SUNSHINE BEACH RD, NOOSA HEADS, QLD, Australia",
        "lat": -26.3964,
        "lon": 153.089263,
        "result": {
          "address": "CNR NOOSA DRIVE & SUNSHINE BEACH RD, NOOSA HEADS, QLD, Australia",
          "geocode_address": "BCC Cinemas",
          "lat": -26.39755,
          "lon": 153.09161,
          "dist_from_actual": 0.3
        }
      },
      {
        "address": "LEVEL 3 - 44 MUSK AVENUE, KELVIN GROVE, QLD, Australia",
        "lat": -27.453366,
        "lon": 153.013238,
        "result": {
          "address": "LEVEL 3 - 44 MUSK AVENUE, KELVIN GROVE, QLD, Australia",
          "geocode_address": "44 Musk Ave, Kelvin Grove QLD 4059, Australia",
          "lat": -27.45371,
          "lon": 153.0135,
          "dist_from_actual": 0.0
        }
      },
      {
        "address": "421 ANNERLEY ROAD DEL TUES - FRI, ANNERLEY, QLD, Australia",
        "lat": -27.508276,
        "lon": 153.032396,
        "result": {
          "address": "421 ANNERLEY ROAD DEL TUES - FRI, ANNERLEY, QLD, Australia",
          "geocode_address": "421 Annerley Rd, Annerley QLD 4103, Australia",
          "lat": -27.50832,
          "lon": 153.03218,
          "dist_from_actual": 0.0
        }
      },
      {
        "address": "Centre Commercial Des Raguenets, 95210 St Gratien, France",
        "lat": 48.961582,
        "lon": 2.284699,
        "result": {
          "address": "Centre Commercial Des Raguenets, 95210 St Gratien, France",
          "geocode_address": "Cabinet de Sag",
          "lat": 48.96187,
          "lon": 2.28388,
          "dist_from_actual": 0.1
        }
      },
      {
        "address": "6 T Place Rollon, 95770 Saint Clair Sur Epte, France",
        "lat": 49.206672,
        "lon": 1.67901,
        "result": {
          "address": "6 T Place Rollon, 95770 Saint Clair Sur Epte, France",
          "geocode_address": "6t Place Rollon, 95770 Saint-Clair-sur-Epte, France",
          "lat": 49.20699,
          "lon": 1.67958,
          "dist_from_actual": 0.1
        }
      }
    ],
    "duration": 2.4,
    "quality": {
      "imprecise": 4,
      "good": 34,
      "bad": 6,
      "error": 1
    }
  },
  "Mapbox": {
    "output": [
      {
        "address": "Unit 209, Pine Close, Newhaven BN9 0DH",
        "lat": 50.800109,
        "lon": 0.055496,
        "result": {
          "address": "Unit 209, Pine Close, Newhaven BN9 0DH",
          "geocode_address": "BN9 0DH, Newhaven, East Sussex, England, United Kingdom",
          "lat": 50.800177,
          "lon": 0.055534,
          "dist_from_actual": 0.0
        }
      },
      {
        "address": "Unit 209, Pine Close, Newhaven BN9 0DH, GBR",
        "lat": 50.800109,
        "lon": 0.055496,
        "result": {
          "address": "Unit 209, Pine Close, Newhaven BN9 0DH, GBR",
          "geocode_address": "BN9 0DH, Newhaven, East Sussex, England, United Kingdom",
          "lat": 50.800177,
          "lon": 0.055534,
          "dist_from_actual": 0.0
        }
      },
      {
        "address": "Pine Close, Newhaven BN9 0DH",
        "lat": 50.800109,
        "lon": 0.055496,
        "result": {
          "address": "Pine Close, Newhaven BN9 0DH",
          "geocode_address": "BN9 0DH, Newhaven, East Sussex, England, United Kingdom",
          "lat": 50.800177,
          "lon": 0.055534,
          "dist_from_actual": 0.0
        }
      },
      {
        "address": "Pine Close, Newhaven BN9 0DH, GBR",
        "lat": 50.800109,
        "lon": 0.055496,
        "result": {
          "address": "Pine Close, Newhaven BN9 0DH, GBR",
          "geocode_address": "BN9 0DH, Newhaven, East Sussex, England, United Kingdom",
          "lat": 50.800177,
          "lon": 0.055534,
          "dist_from_actual": 0.0
        }
      },
      {
        "address": "51 George Lane, London, England, E18 1LN, GBR",
        "lat": 51.591142,
        "lon": 0.02896,
        "result": {
          "address": "51 George Lane, London, England, E18 1LN, GBR",
          "geocode_address": "51 George Lane, Redbridge, London, E18 1LW, United Kingdom",
          "lat": 51.592371,
          "lon": 0.026959,
          "dist_from_actual": 0.2
        }
      },
      {
        "address": "51 George Lane, London, England, E18 1, GBR",
        "lat": 51.591142,
        "lon": 0.02896,
        "result": {
          "address": "51 George Lane, London, England, E18 1, GBR",
          "geocode_address": "London, Greater London, England, United Kingdom",
          "lat": 51.515618,
          "lon": -0.091998,
          "dist_from_actual": 11.9
        }
      },
      {
        "address": "14 A. van Leeuwenhoekweg, 2408 AM, Alphen a d Rijn, Nederland",
        "lat": 52.128643,
        "lon": 4.645307,
        "result": {
          "address": "14 A. van Leeuwenhoekweg, 2408 AM, Alphen a d Rijn, Nederland",
          "geocode_address": "2408 AM, Alphen aan den Rijn, South Holland, Netherlands",
          "lat": 52.128753,
          "lon": 4.643862,
          "dist_from_actual": 0.1
        }
      },
      {
        "address": "A, Van Leeuwenhoekweg 14, 2408 AM Alphen aan den Rijn, Netherlands",
        "lat": 52.128643,
        "lon": 4.645307,
        "result": {
          "address": "A, Van Leeuwenhoekweg 14, 2408 AM Alphen aan den Rijn, Netherlands",
          "geocode_address": "A. Van Leeuwenhoekweg 14, 2408am Alphen aan den Rijn, Netherlands",
          "lat": 52.12875,
          "lon": 4.645339,
          "dist_from_actual": 0.0
        }
      },
      {
        "address": "Reiver Garage Services, Duns TD11",
        "lat": 55.782252,
        "lon": -2.338105,
        "result": {
          "address": "Reiver Garage Services, Duns TD11",
          "geocode_address": "TD11 3RW, Duns, Scottish Borders, Scotland, United Kingdom",
          "lat": 55.882232,
          "lon": -2.306405,
          "dist_from_actual": 11.3
        }
      },
      {
        "address": "Reiver Garage Services, Duns TD11, GBR",
        "lat": 55.782252,
        "lon": -2.338105,
        "result": {
          "address": "Reiver Garage Services, Duns TD11, GBR",
          "geocode_address": "Duns, Scottish Borders, Scotland, United Kingdom",
          "lat": 55.777842,
          "lon": -2.343848,
          "dist_from_actual": 0.6
        }
      },
      {
        "address": "Agricar Ltd, Stirling",
        "lat": 56.140603,
        "lon": -3.984313,
        "result": {
          "address": "Agricar Ltd, Stirling",
          "geocode_address": "Williamson & Associates, 208 N 3rd St, Sterling, Colorado 80751, United States",
          "lat": 40.625168,
          "lon": -103.207225,
          "dist_from_actual": 6869.3
        }
      },
      {
        "address": "Agricar Ltd, Stirling, United Kingdom",
        "lat": 56.140603,
        "lon": -3.984313,
        "result": {
          "address": "Agricar Ltd, Stirling, United Kingdom",
          "geocode_address": "Stirling, Stirling, Scotland, United Kingdom",
          "lat": 56.118124,
          "lon": -3.936001,
          "dist_from_actual": 3.9
        }
      },
      {
        "address": "KAAPSTADWEG 36 D 1047 AMSTERDAM",
        "lat": 52.404891,
        "lon": 4.739006,
        "result": {
          "address": "KAAPSTADWEG 36 D 1047 AMSTERDAM",
          "geocode_address": "Kaapstadweg 36, 1047hg Amsterdam, Netherlands",
          "lat": 52.404799,
          "lon": 4.738559,
          "dist_from_actual": 0.0
        }
      },
      {
        "address": "KAAPSTADWEG 36 D 1047 AMSTERDAM, Nederland",
        "lat": 52.404891,
        "lon": 4.739006,
        "result": {
          "address": "KAAPSTADWEG 36 D 1047 AMSTERDAM, Nederland",
          "geocode_address": "Kaapstadweg 36, 1047hg Amsterdam, Netherlands",
          "lat": 52.404799,
          "lon": 4.738559,
          "dist_from_actual": 0.0
        }
      },
      {
        "address": "Witte Paal 329",
        "lat": 52.778129,
        "lon": 4.815768,
        "result": {
          "address": "Witte Paal 329",
          "geocode_address": "Witte Paal 329, 1742le Schagen, Netherlands",
          "lat": 52.778289,
          "lon": 4.815626,
          "dist_from_actual": 0.0
        }
      },
      {
        "address": "Witte Paal 329, Nederland",
        "lat": 52.778129,
        "lon": 4.815768,
        "result": {
          "address": "Witte Paal 329, Nederland",
          "geocode_address": "Witte Paal 329, 1742le Schagen, Netherlands",
          "lat": 52.778289,
          "lon": 4.815626,
          "dist_from_actual": 0.0
        }
      },
      {
        "address": "Slotsweg 7",
        "lat": 52.202146,
        "lon": 6.632251,
        "result": {
          "address": "Slotsweg 7",
          "geocode_address": "Slotsweg 7, 7496pw Hengevelde, Netherlands",
          "lat": 52.201963,
          "lon": 6.63225,
          "dist_from_actual": 0.0
        }
      },
      {
        "address": "Slotsweg 7, Nederland",
        "lat": 52.202146,
        "lon": 6.632251,
        "result": {
          "address": "Slotsweg 7, Nederland",
          "geocode_address": "Slotsweg 7, 7496pw Hengevelde, Netherlands",
          "lat": 52.201963,
          "lon": 6.63225,
          "dist_from_actual": 0.0
        }
      },
      {
        "address": "Aalsvoort 1",
        "lat": 52.168644,
        "lon": 6.392294,
        "result": {
          "address": "Aalsvoort 1",
          "geocode_address": "Aalsvoort 1, 7241ma Lochem, Netherlands",
          "lat": 52.168624,
          "lon": 6.392173,
          "dist_from_actual": 0.0
        }
      },
      {
        "address": "Aalsvoort 1, Nederland",
        "lat": 52.168644,
        "lon": 6.392294,
        "result": {
          "address": "Aalsvoort 1, Nederland",
          "geocode_address": "Aalsvoort 1, 7241ma Lochem, Netherlands",
          "lat": 52.168624,
          "lon": 6.392173,
          "dist_from_actual": 0.0
        }
      },
      {
        "address": "6 DOLFIJN 1601 ENKHUIZEN",
        "lat": 52.695506,
        "lon": 5.271827,
        "result": {
          "address": "6 DOLFIJN 1601 ENKHUIZEN",
          "geocode_address": "De Dolfijn 6, 1601mg Enkhuizen, Netherlands",
          "lat": 52.695524,
          "lon": 5.271447,
          "dist_from_actual": 0.0
        }
      },
      {
        "address": "6 DOLFIJN 1601 ENKHUIZEN, Nederland",
        "lat": 52.695506,
        "lon": 5.271827,
        "result": {
          "address": "6 DOLFIJN 1601 ENKHUIZEN, Nederland",
          "geocode_address": "De Dolfijn 6, 1601mg Enkhuizen, Netherlands",
          "lat": 52.695524,
          "lon": 5.271447,
          "dist_from_actual": 0.0
        }
      },
      {
        "address": "De Huchtstraat 5 1327 Almere",
        "lat": 52.3595,
        "lon": 5.258741,
        "result": {
          "address": "De Huchtstraat 5 1327 Almere",
          "geocode_address": "De Huchtstraat 5, 1327ea Almere, Netherlands",
          "lat": 52.359663,
          "lon": 5.258366,
          "dist_from_actual": 0.0
        }
      },
      {
        "address": "De Huchtstraat 5 1327 Almere, Nederland",
        "lat": 52.3595,
        "lon": 5.258741,
        "result": {
          "address": "De Huchtstraat 5 1327 Almere, Nederland",
          "geocode_address": "De Huchtstraat 5, 1327ea Almere, Netherlands",
          "lat": 52.359663,
          "lon": 5.258366,
          "dist_from_actual": 0.0
        }
      },
      {
        "address": "DONAUWEG 11 1011 AMSTERDAM",
        "lat": 52.394527,
        "lon": 4.838175,
        "result": {
          "address": "DONAUWEG 11 1011 AMSTERDAM",
          "geocode_address": "Donauweg 11, 1043aj Amsterdam, Netherlands",
          "lat": 52.394068,
          "lon": 4.837747,
          "dist_from_actual": 0.1
        }
      },
      {
        "address": "DONAUWEG 11 1011 AMSTERDAM, Nederland",
        "lat": 52.394527,
        "lon": 4.838175,
        "result": {
          "address": "DONAUWEG 11 1011 AMSTERDAM, Nederland",
          "geocode_address": "Donauweg 11, 1043aj Amsterdam, Netherlands",
          "lat": 52.394068,
          "lon": 4.837747,
          "dist_from_actual": 0.1
        }
      },
      {
        "address": "STUARTWEG 10 4131 VIANEN",
        "lat": 51.984047,
        "lon": 5.099642,
        "result": {
          "address": "STUARTWEG 10 4131 VIANEN",
          "geocode_address": "Stuartweg 10, 4131nj Vianen, Netherlands",
          "lat": 51.984228,
          "lon": 5.09953,
          "dist_from_actual": 0.0
        }
      },
      {
        "address": "STUARTWEG 10 4131 VIANEN, Nederland",
        "lat": 51.984047,
        "lon": 5.099642,
        "result": {
          "address": "STUARTWEG 10 4131 VIANEN, Nederland",
          "geocode_address": "Stuartweg 10, 4131nj Vianen, Netherlands",
          "lat": 51.984228,
          "lon": 5.09953,
          "dist_from_actual": 0.0
        }
      },
      {
        "address": "Oude Middenweg 237, Leidshendam, NLD",
        "lat": 52.075059,
        "lon": 4.403634,
        "result": {
          "address": "Oude Middenweg 237, Leidshendam, NLD",
          "geocode_address": "Oude Middenweg 237, 2491ah Den Haag, Netherlands",
          "lat": 52.075143,
          "lon": 4.403469,
          "dist_from_actual": 0.0
        }
      },
      {
        "address": "Plantage 12, Oude Wetering, NLD",
        "lat": 52.207195,
        "lon": 4.647462,
        "result": {
          "address": "Plantage 12, Oude Wetering, NLD",
          "geocode_address": "Plantage 12, 2377ag Oude Wetering, Netherlands",
          "lat": 52.207214,
          "lon": 4.647315,
          "dist_from_actual": 0.0
        }
      },
      {
        "address": "HOBARTS GARAGE ##, KILCOY, QLD, Australia",
        "lat": -26.943609,
        "lon": 152.565254,
        "result": {
          "address": "HOBARTS GARAGE ##, KILCOY, QLD, Australia",
          "geocode_address": "Kilcoy, Queensland, Australia",
          "lat": -26.9427,
          "lon": 152.5654,
          "dist_from_actual": 0.1
        }
      },
      {
        "address": "2/97 ARCHER STREET, WOODFORD, QLD, Australia",
        "lat": -26.95362,
        "lon": 152.777805,
        "result": {
          "address": "2/97 ARCHER STREET, WOODFORD, QLD, Australia",
          "geocode_address": "Archer Street, Woodford Queensland 4514, Australia",
          "lat": -26.9545264,
          "lon": 152.7767454,
          "dist_from_actual": 0.1
        }
      },
      {
        "address": "0685 - BP ARCHERFIELD COMMERCIAL, ARCHERFIELD, QLD, Australia",
        "lat": -27.565294,
        "lon": 152.998437,
        "result": {
          "address": "0685 - BP ARCHERFIELD COMMERCIAL, ARCHERFIELD, QLD, Australia",
          "geocode_address": "BP, 958 Beaudesert Rd, Brisbane, Queensland 4108, Australia",
          "lat": -27.56709,
          "lon": 153.02434,
          "dist_from_actual": 2.6
        }
      },
      {
        "address": "S480323 MAZDA H/O - SOUTHPORT MAZDA, ARUNDEL, QLD, Australia",
        "lat": 27.967878,
        "lon": 153.409699,
        "result": {
          "address": "S480323 MAZDA H/O - SOUTHPORT MAZDA, ARUNDEL, QLD, Australia",
          "geocode_address": "Southport Mazda, High St., Gold Coast, Queensland 4215, Australia",
          "lat": -27.965927,
          "lon": 153.409275,
          "dist_from_actual": 6219.6
        }
      },
      {
        "address": "SY1 3TJ, GBR",
        "lat": 52.745344,
        "lon": -2.739563,
        "result": {
          "address": "SY1 3TJ, GBR",
          "geocode_address": "SY1 3TJ, Shrewsbury, Shropshire, England, United Kingdom",
          "lat": 52.745051,
          "lon": -2.740168,
          "dist_from_actual": 0.1
        }
      },
      {
        "address": "B11 2PP, GBR",
        "lat": 52.461279,
        "lon": -1.855262,
        "result": {
          "address": "B11 2PP, GBR",
          "geocode_address": "B11 2PP, Birmingham, West Midlands, England, United Kingdom",
          "lat": 52.46158,
          "lon": -1.855455,
          "dist_from_actual": 0.0
        }
      },
      {
        "address": "MK11 3EW DELIVER 12/4, GBR",
        "lat": 52.045579,
        "lon": -0.823664,
        "result": {
          "address": "MK11 3EW DELIVER 12/4, GBR",
          "geocode_address": "MK11 3EW, Milton Keynes, Milton Keynes, England, United Kingdom",
          "lat": 52.044415,
          "lon": -0.823985,
          "dist_from_actual": 0.1
        }
      },
      {
        "address": "West Midlands DY9 7ND, GBR",
        "lat": 52.453528,
        "lon": -2.130114,
        "result": {
          "address": "West Midlands DY9 7ND, GBR",
          "geocode_address": "DY9 7ND, Stourbridge, West Midlands, England, United Kingdom",
          "lat": 52.45318,
          "lon": -2.130994,
          "dist_from_actual": 0.1
        }
      },
      {
        "address": "Unit 17D, Gainsborough Trading Estate, Rufford Rd, Stourbridge DY9 7ND, United Kingdom",
        "lat": 52.453528,
        "lon": -2.130114,
        "result": {
          "address": "Unit 17D, Gainsborough Trading Estate, Rufford Rd, Stourbridge DY9 7ND, United Kingdom",
          "geocode_address": "Gainsborough Trading Est Rufford Rd, Dudley, DY9 7ND, United Kingdom",
          "lat": 52.5149831,
          "lon": -2.1141856,
          "dist_from_actual": 6.9
        }
      },
      {
        "address": "MAIN ST & KATH FITZGERALD DVE, SAMFORD, QLD, Australia",
        "lat": -27.372564,
        "lon": 152.886251,
        "result": {
          "address": "MAIN ST & KATH FITZGERALD DVE, SAMFORD, QLD, Australia",
          "geocode_address": "Sanford, Maine, United States",
          "lat": 43.438878,
          "lon": -70.773983,
          "dist_from_actual": 15734.2
        }
      },
      {
        "address": "CNR NOOSA DRIVE & SUNSHINE BEACH RD, NOOSA HEADS, QLD, Australia",
        "lat": -26.3964,
        "lon": 153.089263,
        "result": {
          "address": "CNR NOOSA DRIVE & SUNSHINE BEACH RD, NOOSA HEADS, QLD, Australia",
          "geocode_address": "Sunshine Beach Road, Noosa Heads Queensland 4567, Australia",
          "lat": -26.3976267,
          "lon": 153.0915022,
          "dist_from_actual": 0.3
        }
      },
      {
        "address": "LEVEL 3 - 44 MUSK AVENUE, KELVIN GROVE, QLD, Australia",
        "lat": -27.453366,
        "lon": 153.013238,
        "result": {
          "address": "LEVEL 3 - 44 MUSK AVENUE, KELVIN GROVE, QLD, Australia",
          "geocode_address": "44 Musk Avenue, Kelvin Grove Queensland 4059, Australia",
          "lat": -27.453788,
          "lon": 153.013646,
          "dist_from_actual": 0.1
        }
      },
      {
        "address": "421 ANNERLEY ROAD DEL TUES - FRI, ANNERLEY, QLD, Australia",
        "lat": -27.508276,
        "lon": 153.032396,
        "result": {
          "address": "421 ANNERLEY ROAD DEL TUES - FRI, ANNERLEY, QLD, Australia",
          "geocode_address": "421 Annerley Road, Annerley Queensland 4103, Australia",
          "lat": -27.50833,
          "lon": 153.032162,
          "dist_from_actual": 0.0
        }
      },
      {
        "address": "Centre Commercial Des Raguenets, 95210 St Gratien, France",
        "lat": 48.961582,
        "lon": 2.284699,
        "result": {
          "address": "Centre Commercial Des Raguenets, 95210 St Gratien, France",
          "geocode_address": "Les Raguenets-, Saint-Gratien, Val-d'Oise, France",
          "lat": 48.96,
          "lon": 2.28,
          "dist_from_actual": 0.4
        }
      },
      {
        "address": "6 T Place Rollon, 95770 Saint Clair Sur Epte, France",
        "lat": 49.206672,
        "lon": 1.67901,
        "result": {
          "address": "6 T Place Rollon, 95770 Saint Clair Sur Epte, France",
          "geocode_address": "Rue Gambetta, 95770 Saint-Clair-sur-Epte, France",
          "lat": 49.203285,
          "lon": 1.678,
          "dist_from_actual": 0.4
        }
      }
    ],
    "duration": 2.0,
    "quality": {
      "good": 32,
      "imprecise": 4,
      "bad": 9
    }
  },
  "Mapquest": {
    "output": [
      {
        "address": "Unit 209, Pine Close, Newhaven BN9 0DH",
        "lat": 50.800109,
        "lon": 0.055496,
        "result": {
          "address": "Unit 209, Pine Close, Newhaven BN9 0DH",
          "geocode_address": "Unit 209, Pine Close, Newhaven BN9 0DH",
          "lat": 50.792477,
          "lon": 0.05214,
          "dist_from_actual": 0.9
        }
      },
      {
        "address": "Unit 209, Pine Close, Newhaven BN9 0DH, GBR",
        "lat": 50.800109,
        "lon": 0.055496,
        "result": {
          "address": "Unit 209, Pine Close, Newhaven BN9 0DH, GBR",
          "geocode_address": "Unit 209, Pine Close, Newhaven BN9 0DH, GBR",
          "lat": 50.79928,
          "lon": 0.05563,
          "dist_from_actual": 0.1
        }
      },
      {
        "address": "Pine Close, Newhaven BN9 0DH",
        "lat": 50.800109,
        "lon": 0.055496,
        "result": {
          "address": "Pine Close, Newhaven BN9 0DH",
          "geocode_address": "Pine Close, Newhaven BN9 0DH",
          "lat": 50.80016,
          "lon": 0.055519,
          "dist_from_actual": 0.0
        }
      },
      {
        "address": "Pine Close, Newhaven BN9 0DH, GBR",
        "lat": 50.800109,
        "lon": 0.055496,
        "result": {
          "address": "Pine Close, Newhaven BN9 0DH, GBR",
          "geocode_address": "Pine Close, Newhaven BN9 0DH, GBR",
          "lat": 50.79928,
          "lon": 0.05563,
          "dist_from_actual": 0.1
        }
      },
      {
        "address": "51 George Lane, London, England, E18 1LN, GBR",
        "lat": 51.591142,
        "lon": 0.02896,
        "result": {
          "address": "51 George Lane, London, England, E18 1LN, GBR",
          "geocode_address": "51 George Lane, London, England, E18 1LN, GBR",
          "lat": 51.59217,
          "lon": 0.02711,
          "dist_from_actual": 0.2
        }
      },
      {
        "address": "51 George Lane, London, England, E18 1, GBR",
        "lat": 51.591142,
        "lon": 0.02896,
        "result": {
          "address": "51 George Lane, London, England, E18 1, GBR",
          "geocode_address": "51 George Lane, London, England, E18 1, GBR",
          "lat": 51.59115,
          "lon": 0.02899,
          "dist_from_actual": 0.0
        }
      },
      {
        "address": "14 A. van Leeuwenhoekweg, 2408 AM, Alphen a d Rijn, Nederland",
        "lat": 52.128643,
        "lon": 4.645307,
        "result": {
          "address": "14 A. van Leeuwenhoekweg, 2408 AM, Alphen a d Rijn, Nederland",
          "geocode_address": "14 A. van Leeuwenhoekweg, 2408 AM, Alphen a d Rijn, Nederland",
          "lat": 52.12875,
          "lon": 4.64534,
          "dist_from_actual": 0.0
        }
      },
      {
        "address": "A, Van Leeuwenhoekweg 14, 2408 AM Alphen aan den Rijn, Netherlands",
        "lat": 52.128643,
        "lon": 4.645307,
        "result": {
          "address": "A, Van Leeuwenhoekweg 14, 2408 AM Alphen aan den Rijn, Netherlands",
          "geocode_address": "A, Van Leeuwenhoekweg 14, 2408 AM Alphen aan den Rijn, Netherlands",
          "lat": 52.07859,
          "lon": 4.53938,
          "dist_from_actual": 9.1
        }
      },
      {
        "address": "Reiver Garage Services, Duns TD11",
        "lat": 55.782252,
        "lon": -2.338105,
        "result": {
          "address": "Reiver Garage Services, Duns TD11",
          "geocode_address": "Reiver Garage Services, Duns TD11",
          "lat": -31.43432,
          "lon": 152.77896,
          "dist_from_actual": 16685.5
        }
      },
      {
        "address": "Reiver Garage Services, Duns TD11, GBR",
        "lat": 55.782252,
        "lon": -2.338105,
        "result": {
          "address": "Reiver Garage Services, Duns TD11, GBR",
          "geocode_address": "Reiver Garage Services, Duns TD11, GBR",
          "lat": 55.82319,
          "lon": -2.50791,
          "dist_from_actual": 11.5
        }
      },
      {
        "address": "Agricar Ltd, Stirling",
        "lat": 56.140603,
        "lon": -3.984313,
        "result": {
          "address": "Agricar Ltd, Stirling",
          "geocode_address": "Agricar Ltd, Stirling",
          "lat": 39.390897,
          "lon": -99.066067,
          "dist_from_actual": 6753.5
        }
      },
      {
        "address": "Agricar Ltd, Stirling, United Kingdom",
        "lat": 56.140603,
        "lon": -3.984313,
        "result": {
          "address": "Agricar Ltd, Stirling, United Kingdom",
          "geocode_address": "Agricar Ltd, Stirling, United Kingdom",
          "lat": 55.95462,
          "lon": -4.55568,
          "dist_from_actual": 41.1
        }
      },
      {
        "address": "KAAPSTADWEG 36 D 1047 AMSTERDAM",
        "lat": 52.404891,
        "lon": 4.739006,
        "result": {
          "address": "KAAPSTADWEG 36 D 1047 AMSTERDAM",
          "geocode_address": "KAAPSTADWEG 36 D 1047 AMSTERDAM",
          "lat": 52.407891,
          "lon": 4.744387,
          "dist_from_actual": 0.5
        }
      },
      {
        "address": "KAAPSTADWEG 36 D 1047 AMSTERDAM, Nederland",
        "lat": 52.404891,
        "lon": 4.739006,
        "result": {
          "address": "KAAPSTADWEG 36 D 1047 AMSTERDAM, Nederland",
          "geocode_address": "KAAPSTADWEG 36 D 1047 AMSTERDAM, Nederland",
          "lat": 52.40486,
          "lon": 4.74219,
          "dist_from_actual": 0.2
        }
      },
      {
        "address": "Witte Paal 329",
        "lat": 52.778129,
        "lon": 4.815768,
        "result": {
          "address": "Witte Paal 329",
          "geocode_address": "Witte Paal 329",
          "lat": 47.399358,
          "lon": -120.159682,
          "dist_from_actual": 7719.7
        }
      },
      {
        "address": "Witte Paal 329, Nederland",
        "lat": 52.778129,
        "lon": 4.815768,
        "result": {
          "address": "Witte Paal 329, Nederland",
          "geocode_address": "Witte Paal 329, Nederland",
          "lat": 52.77829,
          "lon": 4.81563,
          "dist_from_actual": 0.0
        }
      },
      {
        "address": "Slotsweg 7",
        "lat": 52.202146,
        "lon": 6.632251,
        "result": {
          "address": "Slotsweg 7",
          "geocode_address": "Slotsweg 7",
          "lat": 42.836491,
          "lon": -70.871776,
          "dist_from_actual": 5628.4
        }
      },
      {
        "address": "Slotsweg 7, Nederland",
        "lat": 52.202146,
        "lon": 6.632251,
        "result": {
          "address": "Slotsweg 7, Nederland",
          "geocode_address": "Slotsweg 7, Nederland",
          "lat": 39.962561,
          "lon": -105.51128,
          "dist_from_actual": 7861.9
        }
      },
      {
        "address": "Aalsvoort 1",
        "lat": 52.168644,
        "lon": 6.392294,
        "result": {
          "address": "Aalsvoort 1",
          "geocode_address": "Aalsvoort 1",
          "lat": 43.929017,
          "lon": -79.453885,
          "dist_from_actual": 6066.0
        }
      },
      {
        "address": "Aalsvoort 1, Nederland",
        "lat": 52.168644,
        "lon": 6.392294,
        "result": {
          "address": "Aalsvoort 1, Nederland",
          "geocode_address": "Aalsvoort 1, Nederland",
          "lat": 29.963772,
          "lon": -93.999412,
          "dist_from_actual": 8075.5
        }
      },
      {
        "address": "6 DOLFIJN 1601 ENKHUIZEN",
        "lat": 52.695506,
        "lon": 5.271827,
        "result": {
          "address": "6 DOLFIJN 1601 ENKHUIZEN",
          "geocode_address": "6 DOLFIJN 1601 ENKHUIZEN",
          "lat": 52.695505,
          "lon": 5.271502,
          "dist_from_actual": 0.0
        }
      },
      {
        "address": "6 DOLFIJN 1601 ENKHUIZEN, Nederland",
        "lat": 52.695506,
        "lon": 5.271827,
        "result": {
          "address": "6 DOLFIJN 1601 ENKHUIZEN, Nederland",
          "geocode_address": "6 DOLFIJN 1601 ENKHUIZEN, Nederland",
          "lat": 52.6955,
          "lon": 5.2715,
          "dist_from_actual": 0.0
        }
      },
      {
        "address": "De Huchtstraat 5 1327 Almere",
        "lat": 52.3595,
        "lon": 5.258741,
        "result": {
          "address": "De Huchtstraat 5 1327 Almere",
          "geocode_address": "De Huchtstraat 5 1327 Almere",
          "lat": 52.359685,
          "lon": 5.258393,
          "dist_from_actual": 0.0
        }
      },
      {
        "address": "De Huchtstraat 5 1327 Almere, Nederland",
        "lat": 52.3595,
        "lon": 5.258741,
        "result": {
          "address": "De Huchtstraat 5 1327 Almere, Nederland",
          "geocode_address": "De Huchtstraat 5 1327 Almere, Nederland",
          "lat": 52.35964,
          "lon": 5.25834,
          "dist_from_actual": 0.0
        }
      },
      {
        "address": "DONAUWEG 11 1011 AMSTERDAM",
        "lat": 52.394527,
        "lon": 4.838175,
        "result": {
          "address": "DONAUWEG 11 1011 AMSTERDAM",
          "geocode_address": "DONAUWEG 11 1011 AMSTERDAM",
          "lat": 52.393767,
          "lon": 4.832076,
          "dist_from_actual": 0.4
        }
      },
      {
        "address": "DONAUWEG 11 1011 AMSTERDAM, Nederland",
        "lat": 52.394527,
        "lon": 4.838175,
        "result": {
          "address": "DONAUWEG 11 1011 AMSTERDAM, Nederland",
          "geocode_address": "DONAUWEG 11 1011 AMSTERDAM, Nederland",
          "lat": 52.39386,
          "lon": 4.83728,
          "dist_from_actual": 0.1
        }
      },
      {
        "address": "STUARTWEG 10 4131 VIANEN",
        "lat": 51.984047,
        "lon": 5.099642,
        "result": {
          "address": "STUARTWEG 10 4131 VIANEN",
          "geocode_address": "STUARTWEG 10 4131 VIANEN",
          "lat": 51.984228,
          "lon": 5.09953,
          "dist_from_actual": 0.0
        }
      },
      {
        "address": "STUARTWEG 10 4131 VIANEN, Nederland",
        "lat": 51.984047,
        "lon": 5.099642,
        "result": {
          "address": "STUARTWEG 10 4131 VIANEN, Nederland",
          "geocode_address": "STUARTWEG 10 4131 VIANEN, Nederland",
          "lat": 51.98423,
          "lon": 5.09953,
          "dist_from_actual": 0.0
        }
      },
      {
        "address": "Oude Middenweg 237, Leidshendam, NLD",
        "lat": 52.075059,
        "lon": 4.403634,
        "result": {
          "address": "Oude Middenweg 237, Leidshendam, NLD",
          "geocode_address": "Oude Middenweg 237, Leidshendam, NLD",
          "lat": 52.07514,
          "lon": 4.40347,
          "dist_from_actual": 0.0
        }
      },
      {
        "address": "Plantage 12, Oude Wetering, NLD",
        "lat": 52.207195,
        "lon": 4.647462,
        "result": {
          "address": "Plantage 12, Oude Wetering, NLD",
          "geocode_address": "Plantage 12, Oude Wetering, NLD",
          "lat": 52.20721,
          "lon": 4.64731,
          "dist_from_actual": 0.0
        }
      },
      {
        "address": "HOBARTS GARAGE ##, KILCOY, QLD, Australia",
        "lat": -26.943609,
        "lon": 152.565254,
        "result": {
          "address": "HOBARTS GARAGE ##, KILCOY, QLD, Australia",
          "geocode_address": "HOBARTS GARAGE ##, KILCOY, QLD, Australia",
          "lat": -26.79043,
          "lon": 152.72097,
          "dist_from_actual": 23.0
        }
      },
      {
        "address": "2/97 ARCHER STREET, WOODFORD, QLD, Australia",
        "lat": -26.95362,
        "lon": 152.777805,
        "result": {
          "address": "2/97 ARCHER STREET, WOODFORD, QLD, Australia",
          "geocode_address": "2/97 ARCHER STREET, WOODFORD, QLD, Australia",
          "lat": -26.95351,
          "lon": 152.7778,
          "dist_from_actual": 0.0
        }
      },
      {
        "address": "0685 - BP ARCHERFIELD COMMERCIAL, ARCHERFIELD, QLD, Australia",
        "lat": -27.565294,
        "lon": 152.998437,
        "result": {
          "address": "0685 - BP ARCHERFIELD COMMERCIAL, ARCHERFIELD, QLD, Australia",
          "geocode_address": "0685 - BP ARCHERFIELD COMMERCIAL, ARCHERFIELD, QLD, Australia",
          "lat": -27.59193,
          "lon": 152.95948,
          "dist_from_actual": 4.8
        }
      },
      {
        "address": "S480323 MAZDA H/O - SOUTHPORT MAZDA, ARUNDEL, QLD, Australia",
        "lat": 27.967878,
        "lon": 153.409699,
        "result": {
          "address": "S480323 MAZDA H/O - SOUTHPORT MAZDA, ARUNDEL, QLD, Australia",
          "geocode_address": "S480323 MAZDA H/O - SOUTHPORT MAZDA, ARUNDEL, QLD, Australia",
          "lat": -27.94377,
          "lon": 153.35698,
          "dist_from_actual": 6217.1
        }
      },